[
{"name":"Cảng du thuyền Mỹ Tho","type":"Cảng biển","image":"https://lh5.googleusercontent.com/p/AF1QipP6DtZLtVg5daun8ByZHKXfyMMaA0cW-6lKKtaV=w408-h306-k-no","address":"2 Nam Kỳ Khởi Nghĩa, Phường 4, Thành phố Mỹ Tho, Tiền Giang, Việt Nam","state":"Tiền Giang","latitude":10.352136474895405,"longitude":106.36097698830022},
{"name":"Bến cảng trung tâm điện lực duyên hải","type":"Cảng biển","image":"https://lh5.googleusercontent.com/p/AF1QipN_HzPvVktCfxaMy5RJ2p_L6TzKNOi42Q5HCzCy=w156-h96-p-k-no","address":" Dân Thành, Duyên Hải, Trà Vinh, Việt Nam","state":"Trà Vinh","latitude":9.581914295159507, "longitude":106.52201927049252},
{"name":"Công ty Điện lực Tiền Giang","type":"Hệ thống cấp điện","image":"https://lh5.googleusercontent.com/p/AF1QipMY_U6Ey59LMgfZaqPfr3LAD6g2Ua4zO5mUhV5k=w156-h96-p-k-no","address":"7 Học Lạc, Phường 8, Thành phố Mỹ Tho, Tiền Giang, Việt Nam","state":"Tiền Giang","latitude":10.357413344116454, "longitude":106.37259956488263},
{"name":"Điện lực Mỹ Tho","type":"Hệ thống cấp điện","image":"https://lh5.googleusercontent.com/p/AF1QipM1ALXg6ARtlNGwSPdHaNwqKTLTgmB3IdSIsv3r=w408-h306-k-no","address":"Số 4B Trương Định, Phường 1, Thành phố Mỹ Tho, Tiền Giang, Việt Nam","state":"Tiền Giang","latitude":10.359057460424694, "longitude":106.36515313305138},
{"name":"Điện lực Gò Công Tây","type":"Hệ thống cấp điện","image":"https://lh5.googleusercontent.com/p/AF1QipNJzxgv-ijdofj0VV6ZJJiH2ngo2R5aRLaGDMZf=w408-h306-k-no","address":"ấp Bình Hòa Đông, Bình Nhi, Gò Công Tây, Tiền Giang, Việt Nam","state":"Tiền Giang","latitude":10.366243735692242, "longitude":106.58173058534648},
{"name":"Điện lực Tân Phước","type":"Hệ thống cấp điện","image":"https://maps.gstatic.com/tactile/pane/result-no-thumbnail-1x.png","address":"ĐT865, TT. Mỹ Phước, Tân Phước, Tiền Giang, Việt Nam","state":"Tiền Giang","latitude":10.500600568305469, "longitude":106.18998931737691},
{"name":"Điện lực Gò Công Đông","type":"Hệ thống cấp điện","image":"https://maps.gstatic.com/tactile/pane/result-no-thumbnail-1x.png","address":"92 ĐT862, TT. Tân Hoà, Gò Công Đông, Tiền Giang, Việt Nam","state":"Tiền Giang","latitude":10.334470197989551, "longitude":106.71458645604378},
{"name":"Cty Điện Lực Tân Phước Gò Công","type":"Hệ thống cấp điện","image":"https://maps.gstatic.com/tactile/pane/default_geocode-1x.png","address":"FPCJ+J3W, Tân Phước, Gò Công Đông, Tiền Giang, Việt Nam","state":"Tiền Giang","latitude":10.49637834737471, "longitude":106.73002832210447},
{"name":"Nhà máy nhiệt điện Duyên Hải 1","type":"Hệ thống cấp điện","image":"https://lh5.googleusercontent.com/p/AF1QipMVtnNyK3AEutuHvfJr7OB1bKgtjbdgyRXN_Tkv=w408-h302-k-no", "address":"HGMF+62Q, Dân Thành, Duyên Hải, Trà Vinh, Việt Nam","state":"Trà Vinh","latitude":9.583220652393976, "longitude":106.52288306728092},
{"name":"Trung Tâm Điện Lực Duyên Hải","type":"Hệ thống cấp điện","image":"https://lh5.googleusercontent.com/p/AF1QipN_HzPvVktCfxaMy5RJ2p_L6TzKNOi42Q5HCzCy=w408-h306-k-no", "address":"Unnamed Road, Dân Thành, Duyên Hải, Trà Vinh, Việt Nam","state":"Trà Vinh","latitude":9.58181735969908, "longitude":106.52208638319213},
{"name":"Nhà máy nhiệt điện Duyên Hải 3","type":"Hệ thống cấp điện","image":"https://lh5.googleusercontent.com/p/AF1QipOhJL3HLQDDHrSCBAfhDM9mI8Awp6ufR80_ifq7=w408-h306-k-no", "address":"HGPG+PCW, Dân Thành, Duyên Hải, Trà Vinh, Việt Nam","state":"Trà Vinh","latitude":9.587073190427029, "longitude":106.52613441516155},
{"name":"Nhà máy nhiệt điện Duyên Hải 3 mở rộng","type":"Hệ thống cấp điện","image":"https://lh5.googleusercontent.com/p/AF1QipPzs4x3e9o87iDo9OxAWLq0qwuUiz1oDK0NzP18=w426-h240-k-no", "address":"HGQH+F4J, Dân Thành, Duyên Hải, Trà Vinh, Việt Nam","state":"Trà Vinh","latitude":9.58889433510527, "longitude":106.52784296969776},
{"name":"Nhà máy điện mặt trời Trung Nam - Trà Vinh","type":"Hệ thống cấp điện","image":"https://maps.gstatic.com/tactile/pane/result-no-thumbnail-1x.png", "address":"382, ĐT913, Dân Thành, Duyên Hải, Trà Vinh, Việt Nam","state":"Trà Vinh","latitude":9.589863797809032, "longitude":106.50724806446182},
{"name":"Điện lực thành phố Trà Vinh","type":"Hệ thống cấp điện","image":"https://maps.gstatic.com/tactile/pane/result-no-thumbnail-1x.png", "address":"164 Hùng Vương, Hoà Thuận, Châu Thành, Trà Vinh, Việt Nam","state":"Trà Vinh","latitude":9.965860212332439, "longitude":106.3580327683309},
{"name":"Công ty Điện lực Trà Vinh","type":"Hệ thống cấp điện","image":"https://maps.gstatic.com/tactile/pane/result-no-thumbnail-1x.png", "address":"2 Hùng Vương, Phường 4, Trà Vinh, Việt Nam","state":"Trà Vinh","latitude":9.964507640061925, "longitude":106.34872079629781},
{"name":"Điện lực Càng Long","type":"Hệ thống cấp điện","image":"https://maps.gstatic.com/tactile/pane/result-no-thumbnail-1x.png", "address":"48a Phạm Ngũ Lão, Phường 1, Trà Vinh, Việt Nam","state":"Trà Vinh","latitude":9.982090641752588, "longitude":106.33910775997535},
{"name":"Điện lực Tiểu Cần","type":"Hệ thống cấp điện","image":"https://maps.gstatic.com/tactile/pane/result-no-thumbnail-1x.png", "address":"QL60, Hiếu Tử, Tiểu Cần, Trà Vinh, Việt Nam","state":"Trà Vinh","latitude":9.86304878337819, "longitude":106.19491221513847},
{"name":"Điện lực Cầu Kè","type":"Hệ thống cấp điện","image":"https://maps.gstatic.com/tactile/pane/result-no-thumbnail-1x.png", "address":"153 30 Tháng 4, TT. Cầu Kè, Cầu Kè, Trà Vinh, Việt Nam","state":"Trà Vinh","latitude":9.876578443017365, "longitude":106.06994274294651},
{"name":"Điện lực Trà Cú","type":"Hệ thống cấp điện","image":"https://maps.gstatic.com/tactile/pane/result-no-thumbnail-1x.png", "address":"Ba Tháng Hai, Ngãi Xuyên, Trà Cú, Trà Vinh, Việt Nam","state":"Trà Vinh","latitude":9.739903443888112, "longitude":106.26632334210532},
{"name":"Nhà máy điện gió Duyên Hải","type":"Hệ thống cấp điện","image":"https://maps.gstatic.com/tactile/pane/result-no-thumbnail-1x.png", "address":"ẤP, Duyên Hải, Trà Vinh, Việt Nam","state":"Trà Vinh","latitude":9.578269028815866, "longitude":106.43863304977663},
{"name":"Nhà Máy Điện Gió V1-2 Trà Vinh","type":"Hệ thống cấp điện","image":"https://lh5.googleusercontent.com/p/AF1QipOb4n0GhChnqjz885LWNodoGsRfDztYCkLm1Bba=w408-h449-k-no", "address":"Ấp Cồn Trứng, Xã Trường Long Hòa, Duyên Hải, Trà Vinh 87000, Việt Nam","state":"Trà Vinh","latitude":9.643791418697278, "longitude":106.63024546057142},
{"name":"Nhà máy điện gió Hiệp Thạnh","type":"Hệ thống cấp điện","image":"https://lh5.googleusercontent.com/p/AF1QipOb4n0GhChnqjz885LWNodoGsRfDztYCkLm1Bba=w408-h449-k-no", "address":"131 ĐT914, Long Hữu, Duyên Hải, Trà Vinh, Việt Nam","state":"Trà Vinh","latitude":9.757498430673625, "longitude":106.56707404990794},
{"name":"Nhà máy nhiệt điện Duyên Hải 2","type":"Hệ thống cấp điện","image":"https://lh5.googleusercontent.com/p/AF1QipMq-I9RIv0-W7PM9ACoQ2oeDCzRuRvzvlEfgqcN=w408-h544-k-no", "address":"HGRH+JPJ, Dân Thành, Duyên Hải, Trà Vinh, Việt Nam","state":"Trà Vinh","latitude":9.622043625006167, "longitude":106.529265277067},
{"name":"Công ty Nhiệt điện Duyên Hải","type":"Hệ thống cấp điện","image":"https://lh5.googleusercontent.com/p/AF1QipPxuuU4EQn55JRObco68YeA0F4volGI73BsqEV2=w417-h240-k-no", "address":"HGJC+PH5, Dân Thành, Duyên Hải, Trà Vinh, Việt Nam","state":"Trà Vinh","latitude":9.604109646718786, "longitude":106.51736360435739},
{"name":"Công ty Nhiệt điện Duyên Hải","type":"Hệ thống cấp điện","image":"https://lh5.googleusercontent.com/p/AF1QipPxuuU4EQn55JRObco68YeA0F4volGI73BsqEV2=w417-h240-k-no", "address":"HGJC+PH5, Dân Thành, Duyên Hải, Trà Vinh, Việt Nam","state":"Trà Vinh","latitude":9.604109646718786, "longitude":106.51736360435739},
{"name":"Công ty Nhiệt điện Duyên Hải","type":"Hệ thống cấp điện","image":"https://lh5.googleusercontent.com/p/AF1QipPxuuU4EQn55JRObco68YeA0F4volGI73BsqEV2=w417-h240-k-no", "address":"HGJC+PH5, Dân Thành, Duyên Hải, Trà Vinh, Việt Nam","state":"Trà Vinh","latitude":9.604109646718786, "longitude":106.51736360435739},

{"name":"Công ty TNHH MTV Cấp nước Tiền Giang","type":"Hệ thống cấp nước","image":"https://lh5.googleusercontent.com/p/AF1QipPPRFMAT_rKwDgg83Z73Zy3BrDmsXZgo9r2M20=w408-h306-k-no", "address":"4A Ba Mươi Tháng Tư, Phường 1, Thành phố Mỹ Tho, Tiền Giang, Việt Nam","state":"Tiền Giang","latitude":10.35346046929668, "longitude":106.36243973767492},
{"name":"Nhà Máy Nước Đồng Tâm","type":"Hệ thống cấp nước","image":"https://lh5.googleusercontent.com/p/AF1QipMla7-13xygehbjXf_BLZSKYr_dhk3_InxICy8n=w408-h306-k-no", "address":"87RW+923, ấp Tân Thuận, Châu Thành, Tiền Giang, Việt Nam","state":"Tiền Giang","latitude":10.343703336992471, "longitude":106.30240042769842},
{"name":"Công Ty TNHH MTV Cấp Nước Tiền Giang (Cơ sở 2)","type":"Hệ thống cấp nước","image":"https://lh5.googleusercontent.com/p/AF1QipPBefRuZ7LBmlbRI2w7MfTIdeN7lzvD9BA6PAU7=w408-h256-k-no", "address":"89 P., 4 Nam Kỳ Khởi Nghĩa, Phường 4, Thành phố Mỹ Tho, Tiền Giang, Việt Nam","state":"Tiền Giang","latitude":10.357662186691927, "longitude":106.36167341572455},
{"name":"Công Ty Khai Thác Và Cấp Nước Sinh Hoạt Nông Thôn","type":"Hệ thống cấp nước","image":"https://maps.gstatic.com/tactile/pane/default_geocode-1x.png", "address":"89 Nam Kỳ Khởi Nghĩa, Phường 4, Thành phố Mỹ Tho, Tiền Giang, Việt Nam","state":"Tiền Giang","latitude":10.35758819474317, "longitude":106.36219788262625},
{"name":"Cấp Nước Thị Xã Gò Công","type":"Hệ thống cấp nước","image":"https://maps.gstatic.com/tactile/pane/default_geocode-1x.png", "address":"1/1A Nguyễn Trọng Dân KP3 P3, TXGC, Nguyễn Trọng Dân, Phường 3, Gò Công, Tiền Giang, Việt Nam","state":"Tiền Giang","latitude":10.369910298147477, "longitude":106.6733816247811},
{"name":"Nhà Máy Nước Thị Xã Gò Công","type":"Hệ thống cấp nước","image":"https://maps.gstatic.com/tactile/pane/default_geocode-1x.png", "address":"1/1A Nguyễn Trọng Dân, Phường 2, Gò Công, Tiền Giang, Việt Nam","state":"Tiền Giang","latitude":10.384769403653475, "longitude":106.68436795200677},
{"name":"Công Ty TNHH MTV Cấp Thoát Nước Trà Vinh","type":"Hệ thống cấp nước","image":"https://maps.gstatic.com/tactile/pane/default_geocode-1x.png", "address":"521B Nguyễn Chí Thanh, Phường 6, Trà Vinh, 94000, Việt Nam","state":"Trà Vinh","latitude":9.91898557757597, "longitude":106.34112763475507},
{"name":"Nhà Máy Nước Thành Phố Trà Vinh","type":"Hệ thống cấp nước","image":"https://maps.gstatic.com/tactile/pane/default_geocode-1x.png", "address":"Đường Nguyễn Chí Thanh, Phường 6, Trà Vinh, Việt Nam","state":"Trà Vinh","latitude":9.918879730814867, "longitude":106.34043865251272},
{"name":"Trung Tâm Nước Sạch Và Vệ Sinh Môi Trường Nông Thôn","type":"Hệ thống cấp nước","image":"https://maps.gstatic.com/tactile/pane/default_geocode-1x.png", "address":"109 Phạm Ngũ Lão, khóm 3, Trà Vinh, Việt Nam","state":"Trà Vinh","latitude":9.953697035724389, "longitude":106.34157298447002},
{"name":"Công Ty Tnhh Một Thành Viên Cấp Thoát Nước Trà Vinh","type":"Hệ thống cấp nước","image":"https://maps.gstatic.com/tactile/pane/default_geocode-1x.png", "address":"Số 521B Nguyễn Chí Thanh, Phường 9, Trà Vinh, Việt Nam","state":"Trà Vinh","latitude":9.89352170302366, "longitude":106.35054445164941},
{"name":"Trạm cấp nước sạch xã huyền hội","type":"Hệ thống cấp nước","image":"https://maps.gstatic.com/tactile/pane/default_geocode-1x.png", "address":"Unnamed Road, Càng Long, Trà Vinh, Việt Nam","state":"Trà Vinh","latitude":9.929108191951197, "longitude":106.2343405152946},
{"name":"Công Ty Cổ Phần Boo Nước Trà Vinh","type":"Hệ thống cấp nước","image":"https://maps.gstatic.com/tactile/pane/default_geocode-1x.png", "address":"465A Lê Lợi, Phường 4, Trà Vinh, Việt Nam","state":"Trà Vinh","latitude":9.939231282960165, "longitude":106.34934921982683},
{"name":"Trạm cấp nước sạch xã bình phú","type":"Hệ thống cấp nước","image":"https://maps.gstatic.com/tactile/pane/default_geocode-1x.png", "address":"ĐH6, Bình Phú, Càng Long, Trà Vinh, Việt Nam","state":"Trà Vinh","latitude":9.941924190962823, "longitude":106.24838636981065},

{"name":"Bãi rác tân lập - Tiền Giang","type":"Hê thống xử lý cấp nước thải","image":"https://maps.gstatic.com/tactile/pane/default_geocode-1x.png", "address":"Unnamed Road, Tân Lập 1, Tân Phước, Tiền Giang, Việt Nam","state":"Tiền Giang","latitude":10.489609638352798, "longitude":106.31346517282523},
{"name":"Bãi rác Càng Long","type":"Hê thống xử lý cấp nước thải","image":"https://maps.gstatic.com/tactile/pane/default_geocode-1x.png", "address":"X6R2+9GH, TT. Càng Long, Càng Long, Trà Vinh, Việt Nam","state":"Trà Vinh","latitude":10.03974539117204, "longitude":106.229110504401},
{"name":"Nhà máy xử lý chất thải rắn Thị xã Duyên Hải","type":"Hê thống xử lý cấp nước thải","image":"https://maps.gstatic.com/tactile/pane/default_geocode-1x.png", "address":"MFWV+97V, Long Hữu, Duyên Hải, Trà Vinh, Việt Nam","state":"Trà Vinh","latitude":9.744819302256916, "longitude":106.50102210323627},
{"name":"Bãi phế liệu Minh nhựa","type":"Hê thống xử lý cấp nước thải","image":"https://maps.gstatic.com/tactile/pane/default_geocode-1x.png", "address":"038 bình hội, Huyền Hội, Càng Long, Trà Vinh, Việt Nam","state":"Trà Vinh","latitude":9.933961036615685, "longitude":106.23602509597993},
{"name":"Bãi phế liệu Thuận Hòa","type":"Hê thống xử lý cấp nước thải","image":"https://maps.gstatic.com/tactile/pane/default_geocode-1x.png", "address":"Unnamed Road, Lưu Nghiệp Anh, Trà Cú, Trà Vinh, Việt Nam","state":"Trà Vinh","latitude":9.716512663990386, "longitude":106.19767495423568},
{"name":"Sở Tài Nguyên và Môi Trường tỉnh Trà Vinh","type":"Hê thống xử lý cấp nước thải","image":"https://lh5.googleusercontent.com/p/AF1QipM4TKOl5fBA44_7fM53RkuNMXbyKidNuEQV_m-d=w439-h240-k-no", "address":"478A Mậu Thân,khóm 3,phường 6, Trà Vinh, Phường 9, Trà Vinh, Việt Nam","state":"Trà Vinh","latitude":9.96147122328189, "longitude":106.41121579493705},

{"name":"Trung Tâm Giao Dịch Bưu Điện Trà Vinh","type":"Bưu điện","image":"https://lh5.googleusercontent.com/p/AF1QipPRK2hyRIF4feC83h4mHxJF0x_8SS6JFfLNZus=w408-h544-k-no", "address":"70A Hùng Vương, Phường 4, Trà Vinh, Việt Nam","state":"Trà Vinh","latitude":9.937514342888193, "longitude":106.34252351894246},
{"name":"Bưu Điện Tỉnh Trà Vinh","type":"Bưu điện","image":"https://lh5.googleusercontent.com/p/AF1QipP-Kg8OO6Rfaef9Qq65nxWFFL4Yn05crx6dIh3T=w408-h544-k-no", "address":"3 Lê Thánh Tôn, Phường 4, Trà Vinh, Việt Nam","state":"Trà Vinh","latitude":9.936922541843224, "longitude":106.34036702307101},
{"name":"Bưu Điện Tỉnh Trà Vinh","type":"Bưu điện","image":"https://maps.gstatic.com/tactile/pane/default_geocode-1x.png", "address":"3 Phan Đình Phùng, Phường 3, Trà Vinh, Việt Nam","state":"Trà Vinh","latitude":9.934871899421937, "longitude":106.3410769759539},
{"name":"Bưu Điện Thị Xã Trà Vinh","type":"Bưu điện","image":"https://maps.gstatic.com/tactile/pane/default_geocode-1x.png", "address":"70 Hùng Vương, Phường 4, Trà Vinh, Việt Nam","state":"Trà Vinh","latitude":9.937323655009072, "longitude":106.34136665450383},
{"name":"Bưu Diện Trung Tâm TP Trà vinh","type":"Bưu điện","image":"https://maps.gstatic.com/tactile/pane/default_geocode-1x.png", "address":"70A Hùng Vương, Phường 4, Trà Vinh, Việt Nam","state":"Trà Vinh","latitude":9.937482173056713, "longitude":106.34289014909956},
{"name":"Bưu Điện Tỉnh Trà Vinh","type":"Bưu điện","image":"https://maps.gstatic.com/tactile/pane/default_geocode-1x.png", "address":"Số 577 Mậu Thân, Phường 6, Trà Vinh, Việt Nam","state":"Trà Vinh","latitude":9.923457482308203, "longitude":106.33967925819631},
{"name":"Bưu Cục Mậu Thân","type":"Bưu điện","image":"https://maps.gstatic.com/tactile/pane/default_geocode-1x.png", "address":"Mậu Thân, Thành Phố Trà Vinh, Tỉnh Trà Vinh, Việt Nam","state":"Trà Vinh","latitude":9.92355259717594, "longitude":106.33888532439289},
{"name":"NGÂN HÀNG BƯU ĐIỆN LIÊN VIỆT-CN TRÀ VINH","type":"Bưu điện","image":"https://maps.gstatic.com/tactile/pane/default_geocode-1x.png", "address":"W8FQ+89 Trà Vinh, Việt Nam","state":"Trà Vinh","latitude":9.924059861826697, "longitude":106.33945395247058},
{"name":"BƯU CỤC TRÀ VINH","type":"Bưu cục","image":"https://maps.gstatic.com/tactile/pane/default_geocode-1x.png", "address":"156 Đ. Nguyễn Đáng, Phường 7, Trà Vinh, Việt Nam","state":"Trà Vinh","latitude":9.92810521120628, "longitude":106.3323538471187},
{"name":"Bưu Điện Tỉnh Trà Vinh","type":"Bưu điện","image":"https://maps.gstatic.com/tactile/pane/default_geocode-1x.png", "address":"Số 70A Hùng Vương, khóm 3, Châu Thành, Trà Vinh, Việt Nam","state":"Trà Vinh","latitude":9.940673543095304, "longitude":106.3420888314499},
{"name":"Bưu Cục GHN Nguyễn Thị Minh Khai TP Trà Vinh","type":"Bưu điện","image":"https://maps.gstatic.com/tactile/pane/default_geocode-1x.png", "address":"Số 139 Lò Hột, Phường 5, Trà Vinh, Việt Nam","state":"Trà Vinh","latitude":9.945746030520796, "longitude":106.34861196324016},
{"name":"Bưu Điện","type":"Bưu điện","image":"https://maps.gstatic.com/tactile/pane/default_geocode-1x.png", "address":"X9C3+P87, Long Đức, Trà Vinh, Việt Nam","state":"Trà Vinh","latitude":9.975333969843799, "longitude":106.35359014276429},
{"name":"Bưu cục Điên Biên Phủ","type":"Bưu cục","image":"https://maps.gstatic.com/tactile/pane/default_geocode-1x.png", "address":"W8PR+5M8, Phường 3, Trà Vinh, Việt Nam","state":"Trà Vinh","latitude":9.937122755065092, "longitude":106.3410588632725},
{"name":"Công Ty Cp Bưu Chính Viettel - Cn Trà Vinh - Bưu Cục Chiến Thắng","type":"Bưu cục","image":"https://maps.gstatic.com/tactile/pane/default_geocode-1x.png", "address":"Võ Nguyên Giáp, Phường 8, Trà Vinh, Việt Nam","state":"Trà Vinh","latitude": 9.914817830961686, "longitude":106.31260509713337},
{"name":"Công Ty Cp Bưu Chính Viettel - Cn Trà Vinh - Bưu Cục Chiến Thắng","type":"Bưu cục","image":"https://maps.gstatic.com/tactile/pane/default_geocode-1x.png", "address":"Võ Nguyên Giáp, Phường 8, Trà Vinh, Việt Nam","state":"Trà Vinh","latitude": 9.914817830961686, "longitude":106.31260509713337},
{"name":"VNPT Trà Vinh","type":"Viễn thông","image":"https://maps.gstatic.com/tactile/pane/default_geocode-1x.png", "address":"70 Hùng Vương, Phường 4, Trà Vinh, Việt Nam","latitude": 9.93757949058098, "longitude":106.34211179345486},
{"name":"Điểm giao dịch VNPT Vinaphone Trà Vinh","type":"Viễn thông","image":"https://lh5.googleusercontent.com/p/AF1QipN1bGVLK2QTBZbDOjOcjSFOunCvBGZTZYTlTaOh=w408-h294-k-no", "address":"83 Lê Lợi, Phường 4, Trà Vinh, Việt Nam","state":"Trà Vinh","latitude": 9.9384086246339, "longitude":106.34205781756827},
{"name":"Trung Tâm Dịch Vụ Khách Hàng","type":"Viễn thông","image":"https://maps.gstatic.com/tactile/pane/default_geocode-1x.png", "address":"70 Hùng Vương, Phường 4, Trà Vinh, Việt Nam","state":"Trà Vinh","latitude": 9.937365175254472, "longitude":106.34217919668869},
{"name":"Trung Tâm Viễn Thông Càng Long","type":"Viễn thông","image":"https://maps.gstatic.com/tactile/pane/default_geocode-1x.png", "address":"320 QL53, TT. Càng Long, Càng Long, Trà Vinh, Việt Nam","state":"Trà Vinh","latitude": 9.99512928686769, "longitude":106.20508604086496},
{"name":"Dịch Vụ Viễn Thông Càng Long","type":"Viễn thông","image":"https://maps.gstatic.com/tactile/pane/default_geocode-1x.png", "address":"72 QL53, TT. Càng Long, Càng Long, Trà Vinh, Việt Nam","state":"Trà Vinh","latitude": 10.00775007350455, "longitude":106.20640658077781},

{"name":"Bưu Cục Tiền Giang","type":"Bưu điện","image":"https://maps.gstatic.com/tactile/pane/default_geocode-1x.png", "address":"87 Nguyễn Trung Trực, Phường 8, Thành phố Mỹ Tho, Tiền Giang, Việt Nam","state":"Tiền Giang","latitude": 10.373012031623968, "longitude":106.40304636629172},
{"name":"Bưu Cục Tiền Giang","type":"Bưu điện","image":"https://maps.gstatic.com/tactile/pane/default_geocode-1x.png", "address":"Đinh Bộ Lĩnh, Phường 8, Thành phố Mỹ Tho, Tiền Giang, Việt Nam","state":"Tiền Giang","latitude": 10.365582287946394, "longitude":106.43600534796872},
{"name":"Bưu Cục Kerry Tiền Giang","type":"Bưu điện","image":"https://maps.gstatic.com/tactile/pane/default_geocode-1x.png", "address":"426 Nguyễn Thị Thập, Phường 6, Thành phố Mỹ Tho, Tiền Giang, Việt Nam","state":"Tiền Giang","latitude": 10.369634897261351, "longitude":106.29936290309948},
{"name":"Bưu điện Trung tâm Tp. Mỹ Tho","type":"Bưu điện","image":"https://maps.gstatic.com/tactile/pane/default_geocode-1x.png", "address":"59 Ba Mươi Tháng Tư, Phường 1, Thành phố Mỹ Tho, Tiền Giang, Việt Nam","state":"Tiền Giang","latitude": 10.390572542702015, "longitude":106.3680274482599},
{"name":"Bưu điện tỉnh Tiền Giang","type":"Bưu điện","image":"https://maps.gstatic.com/tactile/pane/default_geocode-1x.png", "address":"71A Nam Kỳ Khởi Nghĩa, Phường 4, Thành phố Mỹ Tho, Tiền Giang 860000, Việt Nam","state":"Tiền Giang","latitude": 10.369634897261351, "longitude":106.43943857522673},
{"name":"Trung tâm bưu chính Viettel Tiền Giang","type":"Bưu điện","image":"https://maps.gstatic.com/tactile/pane/default_geocode-1x.png", "address":"351 Ấp Bắc, Phường 10, Thành phố Mỹ Tho, Tiền Giang, Việt Nam","state":"Tiền Giang","latitude": 10.389897156667143, "longitude":106.418152566227},
{"name":"Viettel post Tiền Giang","type":"Bưu điện","image":"https://maps.gstatic.com/tactile/pane/default_geocode-1x.png", "address":"17A Đinh Bộ Lĩnh, Phường 2, Thành phố Mỹ Tho, Tiền Giang, Việt Nam","state":"Tiền Giang","latitude": 10.366257726473892, "longitude":106.44218515703315},
{"name":"Bưu điện Trung Lương","type":"Bưu điện","image":"https://maps.gstatic.com/tactile/pane/default_geocode-1x.png", "address":"QL1A, KP Trung Lương,, Phường 10, Thành phố Mỹ Tho, Tiền Giang, Việt Nam","state":"Tiền Giang","latitude": 10.395975578420192, "longitude":106.42295908438824},
{"name":"Bưu điện Vĩnh Kim","type":"Bưu điện","image":"https://maps.gstatic.com/tactile/pane/default_geocode-1x.png", "address":"ĐT876, Vĩnh Kim, Châu Thành, Tiền Giang, Việt Nam","state":"Tiền Giang","latitude": 10.370756029248536, "longitude":106.16983303495572},
{"name":"Bưu Cục Nhị Quý","type":"Bưu điện","image":"https://maps.gstatic.com/tactile/pane/default_geocode-1x.png", "address":"QL1A, Tân Hội, Cai Lậy, Tiền Giang, Việt Nam","state":"Tiền Giang","latitude": 10.420058391872594, "longitude":106.20279201663271},
{"name":"Đại Lý Bưu Điện Trưng Trắc","type":"Bưu điện","image":"https://maps.gstatic.com/tactile/pane/default_geocode-1x.png", "address":"219 Trưng Trắc, Phường 7, Thành phố Mỹ Tho, Tiền Giang, Việt Nam","state":"Tiền Giang","latitude": 10.406551669569089, "longitude":106.37719996134018},
{"name":"Bưu Điện Tam Bình","type":"Bưu điện","image":"https://maps.gstatic.com/tactile/pane/default_geocode-1x.png", "address":"8553+H3X, TT. Cai Lậy, Cai Lậy, Tiền Giang, Việt Nam","state":"Tiền Giang","latitude": 10.31739267003407, "longitude":106.10803494431134},
{"name":"Bưu Điện Xã Trung An","type":"Bưu điện","image":"https://maps.gstatic.com/tactile/pane/default_geocode-1x.png", "address":"ĐT870B, Trung An, Thành phố Mỹ Tho, Tiền Giang, Việt Nam","state":"Tiền Giang","latitude": 10.37818565013619, "longitude":106.29342921624446},
{"name":"Bưu Điện Kim Sơn","type":"Bưu điện","image":"https://maps.gstatic.com/tactile/pane/default_geocode-1x.png", "address":"ĐT864, Kim Sơn, Châu Thành, Tiền Giang, Việt Nam","state":"Tiền Giang","latitude": 10.336307303299089, "longitude":106.27145656179313},
{"name":"Bưu điện thị xã Gò Công","type":"Bưu điện","image":"https://maps.gstatic.com/tactile/pane/default_geocode-1x.png", "address":"Số 4 Đường Hai Bà Trưng, Khu Phố 2, Gò Công, Tiền Giang, Việt Nam","state":"Tiền Giang","latitude": 10.375483990221051, "longitude":106.6779506691428},
{"name":"Bưu Điện Huyện Tân Phú Đông","type":"Bưu điện","image":"https://maps.gstatic.com/tactile/pane/default_geocode-1x.png", "address":"Số 71A Nam Kỳ Khởi Nghĩa, Phường 4, Thành phố Mỹ Tho, Tiền Giang, Việt Nam","state":"Tiền Giang","latitude": 10.390342830958147, "longitude":106.36621363411452},
{"name":"Đại Lý Bưu Điện Học Lạc","type":"Bưu điện","image":"https://maps.gstatic.com/tactile/pane/default_geocode-1x.png", "address":"7 Học Lạc, Phường 8, Thành phố Mỹ Tho, Tiền Giang 860000, Việt Nam","state":"Tiền Giang","latitude": 10.371431456616765, "longitude":106.4307583065653},
{"name":"Bưu điện huyện Châu Thành","type":"Bưu điện","image":"https://maps.gstatic.com/tactile/pane/default_geocode-1x.png", "address":"QL1A, TT. Tân Hiệp, Châu Thành, Tiền Giang, Việt Nam","state":"Tiền Giang","latitude": 10.45584837239492, "longitude":106.35866053414686},
{"name":"Đại Lý Bưu Điện Tam Hiệp","type":"Bưu điện","image":"https://maps.gstatic.com/tactile/pane/default_geocode-1x.png", "address":"QL1A, Tam Hiệp, Châu Thành, Tiền Giang, Việt Nam","state":"Tiền Giang","latitude": 10.407227019578835, "longitude":106.33462794334072},
{"name":"Viễn Thông Tiền Giang","type":"Viễn Thông","image":"https://maps.gstatic.com/tactile/pane/default_geocode-1x.png", "address":"Số 01 Lê Lợi, Phường 1, Thành phố Mỹ Tho, Tiền Giang, Việt Nam","state":"Tiền Giang","latitude": 10.41020568874732, "longitude":106.44037063613138},
{"name":"Viễn Thông Huyện Châu Thành","type":"Viễn Thông","image":"https://maps.gstatic.com/tactile/pane/default_geocode-1x.png", "address":"QL1A, Ấp Cá, Châu Thành, Tiền Giang, Việt Nam","state":"Tiền Giang","latitude": 10.458826576174681, "longitude":106.43625076342174},
{"name":"VIỄN THÔNG A - MỸ THO","type":"Viễn Thông","image":"https://maps.gstatic.com/tactile/pane/default_geocode-1x.png", "address":"289 Ấp Bắc, Phường 5, Thành phố Mỹ Tho, Tiền Giang, Việt Nam","state":"Tiền Giang","latitude": 10.462877973521708, "longitude":106.3799458363902},
{"name":"Đài Viễn thông Phú Đông - VNPT Tiền Giang","type":"Viễn Thông","image":"https://maps.gstatic.com/tactile/pane/default_geocode-1x.png", "address":"6MWW+VF6, Phú Đông, Tân Phú Đông, Tiền Giang, Việt Nam","state":"Tiền Giang","latitude": 10.277810514770703, "longitude":106.81115919045241},
{"name":"Trung tâm Kinh doanh VNPT-Tiền Giang","type":"Viễn Thông","image":"https://maps.gstatic.com/tactile/pane/default_geocode-1x.png", "address":"9938+8GV, Phường 1, Thành phố Mỹ Tho, Tiền Giang, Việt Nam","state":"Tiền Giang","latitude": 10.425062874270392, "longitude":106.36209306510327},
{"name":"Viễn Thông Vĩnh Kim (VNPT Tiền Giang)","type":"Viễn Thông","image":"https://maps.gstatic.com/tactile/pane/default_geocode-1x.png", "address":"964V+WP6, Vĩnh Kim, Châu Thành, Tiền Giang, Việt Nam","state":"Tiền Giang","latitude": 10.331856102164318, "longitude":106.23987017471772},
{"name":"Chi Nhánh Kỹ Thuật Tiền Giang Tổng Công Ty Viễn Thông Quân Đội","type":"Viễn Thông","image":"https://maps.gstatic.com/tactile/pane/default_geocode-1x.png", "address":"559 Lý Thường Kiệt, Phường 5, Thành phố Mỹ Tho, Tiền Giang, Việt Nam","state":"Tiền Giang","latitude": 10.443970997624177, "longitude":106.37445268323214},
{"name":"Trung tâm Công nghệ Thông tin VNPT Tiền Giang","type":"Viễn Thông","image":"https://maps.gstatic.com/tactile/pane/default_geocode-1x.png", "address":"01 Lê Lợi, Tân Mỹ Chánh, Thành phố Mỹ Tho, Tiền Giang, Việt Nam","state":"Tiền Giang","latitude": 10.375085883869016, "longitude":106.53924759161715},
{"name":"Viễn Thông A Gò Công","type":"Viễn Thông","image":"https://maps.gstatic.com/tactile/pane/default_geocode-1x.png", "address":"7 Đ. Nguyễn Huệ, Phường 1, Gò Công, Tiền Giang, Việt Nam","state":"Tiền Giang","latitude": 10.383190803932365, "longitude":106.78232008148503},
{"name":"Vnpt Tiền Giang Dài Lý Internet","type":"Viễn Thông","image":"https://maps.gstatic.com/tactile/pane/default_geocode-1x.png", "address":"ĐH60, Long Khánh, Cai Lậy, Tiền Giang, Việt Nam","state":"Tiền Giang","latitude": 10.391295513926325, "longitude":105.97757161220494},
{"name":"Trung Tâm Viễn Thông Gò Công","type":"Viễn Thông","image":"https://maps.gstatic.com/tactile/pane/default_geocode-1x.png", "address":"20 Trần Hưng Đạo, Phường 2, Gò Công, Tiền Giang, Việt Nam","state":"Tiền Giang","latitude": 10.379138370149562, "longitude":106.80978589954921},
{"name":"Chi Nhánh Tiền Giang - Công Ty Cổ Phần Viễn Thông FPT","type":"Viễn Thông","image":"https://maps.gstatic.com/tactile/pane/default_geocode-1x.png", "address":"284 Ấp Bắc, Phường 10, Thành phố Mỹ Tho, Tiền Giang, Việt Nam","state":"Tiền Giang","latitude": 10.403452184694327, "longitude":106.2838154836204},
{"name":"Dịch Vụ Viễn Thông","type":"Viễn Thông","image":"https://maps.gstatic.com/tactile/pane/default_geocode-1x.png", "address":"ĐT875, TT. Cái Bè, Cái Bè, Tiền Giang, Việt Nam","state":"Tiền Giang","latitude": 10.362928110236744, "longitude":106.00503743026911},

{"name":"Khu Công Nghiệp Đông Tiền Giang","type":"Khu công nghiệp","image":"https://maps.gstatic.com/tactile/pane/default_geocode-1x.png", "address":"KCN, Tân Phước, Gò Công Đông, Tiền Giang, Việt Nam","state":"Tiền Giang","latitude": 10.505847811142711, "longitude":106.85098155737413},
{"name":"Khu Công Nghiệp Gò Công","type":"Khu công nghiệp","image":"https://maps.gstatic.com/tactile/pane/default_geocode-1x.png", "address":"9Q9H+PV2, Khu Công Nghiệp, Gò Công Đông, Tiền Giang, Việt Nam","state":"Tiền Giang","latitude": 10.381598132709495, "longitude":106.90591319350246},
{"name":"Cụm Khu Công Nghiệp Kiểng Phước","type":"Khu công nghiệp","image":"https://maps.gstatic.com/tactile/pane/default_geocode-1x.png", "address":"CQJ4+74F, Khu Công Nghiệp, Gò Công Đông, Tiền Giang, Việt Nam","state":"Tiền Giang","latitude": 10.45858476748452, "longitude":106.86059459369658},
{"name":"Cụm công nghiệp Trung An","type":"Khu công nghiệp","image":"https://maps.gstatic.com/tactile/pane/default_geocode-1x.png", "address":"ĐT864, Trung An, Thành phố Mỹ Tho, Tiền Giang, Việt Nam","state":"Tiền Giang","latitude": 10.415366542286048, "longitude":106.33187759596134},
{"name":"Khu Công Nghiệp Gò Công Đông","type":"Khu công nghiệp","image":"https://maps.gstatic.com/tactile/pane/default_geocode-1x.png", "address":"Đ. Văn Hoá, Khu Công Nghiệp, Gò Công Đông, Tiền Giang, Việt Nam","state":"Tiền Giang","latitude": 10.497746087621051, "longitude":106.77545055769768},
{"name":"Khu công nghiệp Tân Mỹ Chánh","type":"Khu công nghiệp","image":"https://maps.gstatic.com/tactile/pane/default_geocode-1x.png", "address":"Lô 33, 34, Cụm Công Nghiệp Tân Mỹ Chánh,, Phường 9, Thành phố Mỹ Tho, Tiền Giang, Việt Nam","state":"Tiền Giang","latitude": 10.384299739817124, "longitude":106.47744643170144},
{"name":"CỤM CÔNG NGHIỆP GIA THUẬN 1","type":"Khu công nghiệp","image":"https://maps.gstatic.com/tactile/pane/default_geocode-1x.png", "address":"Đ. Số 1, KCN Gia Thuận 1, Gò Công Đông, Tiền Giang, Việt Nam","state":"Tiền Giang","latitude": 10.522050620711463, "longitude":106.78094372131049},
{"name":"Khu Công Nghiệp Gò Công Đông","type":"Khu công nghiệp","image":"https://maps.gstatic.com/tactile/pane/default_geocode-1x.png", "address":"Đ. Số 1, Kiềng Phước, Gò Công Đông, Tiền Giang, Việt Nam","state":"Tiền Giang","latitude": 10.488293808554685, "longitude":106.78918346672975},
{"name":"Khu Công Nghiệp Kiểng Phước","type":"Khu công nghiệp","image":"https://maps.gstatic.com/tactile/pane/default_geocode-1x.png", "address":"Đường A2, Khu Công Nghiệp, Gò Công Đông, Tiền Giang, Việt Nam","state":"Tiền Giang","latitude": 10.405911755827272, "longitude":106.62713514015115},
{"name":"Nhà máy xử lý nước thải KCN Mỹ Tho","type":"Hệ thống xử lý nước thải","image":"https://maps.gstatic.com/tactile/pane/default_geocode-1x.png", "address":"Đường Số 4, Trung An, Thành phố Mỹ Tho, Tiền Giang, Việt Nam","state":"Tiền Giang","latitude": 10.430223484366868, "longitude":106.33325088686456},
{"name":"Khu Công Nghiệp Gò Công 2","type":"Khu công nghiệp","image":"https://maps.gstatic.com/tactile/pane/default_geocode-1x.png", "address":"9QFG+VG2, Khu Công Nghiệp, Gò Công Đông, Tiền Giang, Việt Nam","state":"Tiền Giang","latitude": 10.4072624571553, "longitude":106.81802257569711},
{"name":"Cụm Khu Công Nghiệp Bình Đông","type":"Khu công nghiệp","image":"https://maps.gstatic.com/tactile/pane/default_geocode-1x.png", "address":"FJ2X+VCF, Bình Đông, Gò Công Đông, Tiền Giang, Việt Nam","state":"Tiền Giang","latitude": 10.470738810272923, "longitude":106.60790906750624},
{"name":"Khu Công Nghiệp Long Đức","type":"Khu công nghiệp","image":"https://maps.gstatic.com/tactile/pane/default_geocode-1x.png", "address":"Đường số 1 KCN Long Đức, Long Đức, Trà Vinh, Việt Nam","state":"Trà Vinh","latitude": 9.969683832864753, "longitude": 106.35265233194899},
{"name":"Ban Quản Lý Các Khu Công Nghiệp Tỉnh Trà Vinh","type":"Khu công nghiệp","image":"https://maps.gstatic.com/tactile/pane/default_geocode-1x.png", "address":"560B Đ. Nguyễn Đáng, Phường 6, Trà Vinh, Việt Nam","state":"Trà Vinh","latitude": 9.924678183274953, "longitude": 106.3480800360303},
{"name":"Trường Đại học Tiền Giang cơ sở 2","type":"Trường học","image":"https://lh5.googleusercontent.com/p/AF1QipMDkFqIUA7rSr_s6suqvMncNavE1JU8IVBxyxK0=w408-h306-k-no", "address":"ĐT878, Thân Cửu Nghĩa, Châu Thành, Tiền Giang, Việt Nam","state":"Tiền Giang","latitude": 10.464582586204063, "longitude": 106.29401552939068},
{"name":"Trường Chính trị Tiền Giang","type":"Trường học","image":"https://lh5.googleusercontent.com/p/AF1QipMjoBc68wwauJy7dVsaEoV-28XGF7FbVfgqb1Vz=w408-h544-k-no", "address":"58 Lê Thị Hồng Gấm, Phường 6, Thành phố Mỹ Tho, Tiền Giang, Việt Nam","state":"Tiền Giang","latitude": 10.372738462899331, "longitude": 106.25968325681048},
{"name":"Trường tiểu học Thạnh Trị","type":"Trường học","image":"https://lh5.googleusercontent.com/p/AF1QipOmJG3_hGBEwtA--26vlxi0TtBqqUnHBeIQe9EV=w426-h240-k-no", "address":"Số 204 Đường Lê Văn Nghề, Mỹ Phong, Thành phố Mỹ Tho, Tiền Giang, Việt Nam","state":"Tiền Giang","latitude": 10.376629822021298, "longitude": 106.39038066005915},
{"name":"Trường Cao đẳng Tiền Giang - Cơ sở 4","type":"Trường học","image":"https://lh5.googleusercontent.com/p/AF1QipNnkWpIxE9lVoBBdXKpYJvt7fPt3hbxx7Nir-hl=w408-h306-k-no", "address":"11 Đường Hùng Vương, Phường 7, Thành phố Mỹ Tho, Tiền Giang, Việt Nam","state":"Tiền Giang","latitude": 10.38283844113112, "longitude": 106.37678577371634},
{"name":"Trường tiểu học Tân Tĩnh","type":"Trường học","image":"https://lh5.googleusercontent.com/p/AF1QipNT4t205tX-QcOlTNW1ZzOQHRs1ZzLzceHTU5cZ=w408-h306-k-no", "address":"8CX5+VG5, Tân Mỹ Chánh, Thành phố Mỹ Tho, Tiền Giang, Việt Nam","state":"Tiền Giang","latitude": 10.37519704626741, "longitude": 106.40543214136724},
{"name":"TH Nguyen Hue My Tho Tien Giang","type":"Trường học","image":"https://lh5.googleusercontent.com/p/AF1QipMRmlESS2ArxkfWh-rIn_0Vo_94jQKAOz4RN_J5=w426-h240-k-no", "address":"89944+Q7V, Phường 6, Thành phố Mỹ Tho, Tiền Giang, Việt Nam","state":"Tiền Giang","latitude": 10.37806259121448, "longitude": 106.33454451972263},
{"name":"Trường tiểu học Đinh Bộ Lĩnh","type":"Trường học","image":"https://lh5.googleusercontent.com/p/AF1QipN7xbmdhmMhGsFmbnbjjcfp5-JtYioToCxHWCO5=w426-h240-k-no", "address":"55 Diệp Minh Tuyền, Phường 8, Thành phố Mỹ Tho, Tiền Giang, Việt Nam","state":"Tiền Giang","latitude": 10.364689823688623, "longitude": 106.42631000253655},
{"name":"Trường tiểu học Tân Lý Đông","type":"Trường học","image":"https://lh5.googleusercontent.com/p/AF1QipPh756BOG_59_xkppHmoz0eTrFVkKzvqnXPSmqQ=w408-h306-k-no", "address":"ĐT866, Tân Lý Đông, Châu Thành, Tiền Giang, Việt Nam","state":"Tiền Giang","latitude": 10.50109093586836, "longitude": 106.36128730647586},
{"name":"Trường tiểu học Thái Sanh Hạnh","type":"Trường học","image":"https://lh5.googleusercontent.com/p/AF1QipM5D2_EvPkABhkV7iocUGALiq8lfl8BzKzk4pvJ=w408-h306-k-no", "address":"Ấp Bắc, Phường 10, Thành phố Mỹ Tho, Tiền Giang, Việt Nam","state":"Tiền Giang","latitude": 10.390431296830076, "longitude":  106.39617818830705},
{"name":"Trường tiểu học Thiên Hộ Dương","type":"Trường học","image":"https://lh5.googleusercontent.com/p/AF1QipOvNJXXVpZ7sHlpx08z4lzMdIISrmZkGoOrllDn=w408-h444-k-no", "address":"198 Ấp Bắc, Phường 5, tp, Tiền Giang, Việt Nam","state":"Tiền Giang","latitude": 10.400561916706867, "longitude":   106.36871237024287},
{"name":"Trường tiểu học Tân Thuận Bình","type":"Trường học","image":"https://lh5.googleusercontent.com/p/AF1QipP2rd_eLItIiumVYOHF30MfhBIXF4W1dO0ncxBB=w408-h306-k-no", "address":"9F9J+M23, Tân Thuận Bình, Chợ Gạo, Tiền Giang, Việt Nam","state":"Tiền Giang","latitude":10.385703561798648, "longitude": 106.44149678811291},
{"name":"Trường Tiểu học Bình Xuân, điểm Thành Nhứt, xã Bình Xuân, thị xã Gò Công, Tiền Giang","type":"Trường học","image":"https://maps.gstatic.com/tactile/pane/default_geocode-1x.png", "address":"873, Thành Công, Gò Công Tây, Tiền Giang, Việt Nam","state":"Tiền Giang","latitude":10.410016864478198, "longitude": 106.67220967025044},
{"name":"Trường tiểu học Kim Đồng","type":"Trường học","image":"https://maps.gstatic.com/tactile/pane/default_geocode-1x.png", "address":"89/2 Lê Thị Hồng Gấm, Phường 6, Thành phố Mỹ Tho, Tiền Giang, Việt Nam","state":"Tiền Giang","latitude":10.356660192632054, "longitude": 106.28150840828765},
{"name":"Trường tiểu học Lê Quý Đôn","type":"Trường học","image":"https://lh5.googleusercontent.com/p/AF1QipMcfIGQcsfQtKjOGxepQ_xKzGsv9R9Lcok1eHFi=w408-h306-k-no", "address":"205 Tết Mậu Thân, Phường 4, Thành phố Mỹ Tho, Tiền Giang, Việt Nam","state":"Tiền Giang","latitude":10.402588000400858, "longitude":106.36527915338337},
{"name":"Trường tiểu học Vĩnh Bình 1","type":"Trường học","image":"https://lh5.googleusercontent.com/p/AF1QipMUNFPx1FgqkYmwcXggoN8y__0bZqQTnoEdHbYp=w408-h306-k-no", "address":"9H4J+JJW, Bình Nhi, Gò Công Tây, Tiền Giang, Việt Nam","state":"Tiền Giang","latitude":10.372870776980596, "longitude":106.62139790683173},
{"name":"Trường Tiểu Học Trung Hòa","type":"Trường học","image":"https://lh5.googleusercontent.com/p/AF1QipMzFGR4FhA6NE6vteZs3k3M3RoJsxuZQBblCHfz=w426-h240-k-no", "address":"FCC8+3GC, Trung Hoà, Chợ Gạo, Tiền Giang, Việt Nam","state":"Tiền Giang","latitude":10.489021989652011, "longitude":106.44149679851144},
{"name":"Trường Tiểu Học Bình Nhì 1","type":"Trường học","image":"https://lh5.googleusercontent.com/p/AF1QipN7VPc6b9gAPmP0UQTPuYQRrBYqrLMs75emjf5z=w408-h544-k-no", "address":"9GGV+2HC, Bình Nhi, Gò Công Tây, Tiền Giang, Việt Nam","state":"Tiền Giang","latitude":10.39380820579196, "longitude":106.57813924338068},
{"name":"Trường tiểu học Tân Hội","type":"Trường học","image":"https://lh5.googleusercontent.com/p/AF1QipOH_8e6SWcTIL3zyV6xuJZEKX9B8o1qZ4VCeyZF=w426-h240-k-no", "address":"QL1A, Tân Hội, Cai Lậy, Tiền Giang, Việt Nam","state":"Tiền Giang","latitude":10.419471526455952, "longitude":106.22520348125612},
{"name":"Trường THCS Nam Định","type":"Trường học","image":"https://lh5.googleusercontent.com/p/AF1QipMJecwJ513tNUgJt3ofsaEMuJWz-2hcDhOiVrDq=w408-h306-k-no", "address":"Phường 6, Thành phố Mỹ Tho, Tiền Giang, Việt Nam","state":"Tiền Giang","latitude":10.362063813946303, "longitude":106.28700157190049},
{"name":"Trường THCS Nam Định","type":"Trường học","image":"https://lh5.googleusercontent.com/p/AF1QipMJecwJ513tNUgJt3ofsaEMuJWz-2hcDhOiVrDq=w408-h306-k-no", "address":"Phường 6, Thành phố Mỹ Tho, Tiền Giang, Việt Nam","state":"Tiền Giang","latitude":10.410559908920176, "longitude":106.27616274764898},
{"name":"Trường tiểu học Phú Đông","type":"Trường học","image":"https://lh5.googleusercontent.com/p/AF1QipOTm081eWSJ-1On1YkaF7FSInbHkH7-HVNGgtlQ=w408-h306-k-no", "address":"6PV2+CGG, Phú Đông, Tân Phú Đông, Tiền Giang, Việt Nam","state":"Tiền Giang","latitude":10.270057256349915, "longitude":106.80899963113417},
{"name":"Trường tiểu học Mỹ Tịnh An","type":"Trường học","image":"https://lh5.googleusercontent.com/p/AF1QipOa2UL41IvzI4QYouyrLf3SyQIH7bm7l8Vh3yng=w408-h306-k-no", "address":"Ấp Mỹ Trường, xã Mỹ Tịnh An,, Mỹ Tịnh An, Chợ Gạo, Tiền Giang, Việt Nam","state":"Tiền Giang","latitude":10.484838664535571, "longitude":106.44919741449357},
{"name":"Trường Tiểu Học Nguyễn Thị Tư","type":"Trường học","image":"https://lh5.googleusercontent.com/p/AF1QipPAkaPHYsx2ThYweqq7WHdZnLfGqHE4uNPNfnzF=w426-h240-k-no", "address":"Nguyễn Thìn, Bình Nghị, Gò Công Đông, Tiền Giang, Việt Nam","state":"Tiền Giang","latitude":10.386246644615515, "longitude":106.7993865948117},
{"name":"Trường tiểu học Đạo Thạnh","type":"Trường học","image":"https://lh5.googleusercontent.com/p/AF1QipOWdMUAs6hc6wOrYtnq8quxuQ6_sujX4ymmSFS6=w426-h240-k-no", "address":"Huyện 92A, Đạo Thành, Thành phố Mỹ Tho, Tiền Giang, Việt Nam","state":"Tiền Giang","latitude":10.41461193189405, "longitude":106.43546450546148},
{"name":"Trường Cao đẳng Y tế Tiền Giang","type":"Trường học","image":"https://lh5.googleusercontent.com/p/AF1QipOCphCl-JJMK3kzit6eY5gguWgxYFVlfWcmnmvA=w408-h272-k-no", "address":"Số 83 Thái Sanh Hạnh, Phường 9, Thành phố Mỹ Tho, Tiền Giang, Việt Nam","state":"Tiền Giang","latitude":10.376790976507786, "longitude":106.44095766907432},
{"name":"Trường Tiểu Học Bình Ninh","type":"Trường học","image":"https://lh5.googleusercontent.com/p/AF1QipNSpdqPJJBw_xrSD-NQgPUE6-X3x4ICh-fM7JZL=w408-h306-k-no", "address":"8GF9+98R, Bình Ninh, Chợ Gạo, Tiền Giang, Việt Nam","state":"Tiền Giang","latitude":10.302486517920078, "longitude": 106.51648866875078},
{"name":"Trường tiểu học Hòa Tịnh","type":"Trường học","image":"https://lh5.googleusercontent.com/p/AF1QipOPsSO-jG5qYisJzHp4rsAaUi5oU2Unrx5Rw4xt=w408-h306-k-no", "address":"F96G+WW9, Hoà Tịnh, Chợ Gạo, Tiền Giang, Việt Nam","state":"Tiền Giang","latitude":10.492940726174695, "longitude": 106.2761627606893},
{"name":"Trường tiểu học Bình Đông 2","type":"Trường học","image":"https://lh5.googleusercontent.com/p/AF1QipMMOCPmIsPTFT4XTPYdLk00tk0qKdONbxoHpxnE=w408-h306-k-no", "address":"FJ4Q+WJR, Bình Đông, Gò Công Đông, Tiền Giang, Việt Nam","state":"Tiền Giang","latitude":10.499692282124219, "longitude": 106.71836243152241},
{"name":"Trường tiểu học Hoàng Hoa Thám","type":"Trường học","image":"https://lh5.googleusercontent.com/p/AF1QipNP4nH40u5Fd7EFVioRsBmBh_Pwb9lwPnnVqB8C=w408-h306-k-no", "address":"1/4, Hoàng Hoa Thám, Phường 3, Thành phố Mỹ Tho, Tiền Giang, Việt Nam","state":"Tiền Giang","latitude":10.374089304551141, "longitude": 106.4231048873326},
{"name":"Trường Trung Cấp Phật Học","type":"Trường học","image":"https://lh5.googleusercontent.com/p/AF1QipMyzPFhhNlk2tJp5DvrTh2fGnIb8ISw9Bo6FqBT=w408-h306-k-no", "address":"5 Ngô Quyền, Phường 7, Thành phố Mỹ Tho, Tiền Giang, Việt Nam","state":"Tiền Giang","latitude":10.36733502264074, "longitude": 106.25830997894761},
{"name":"Trường Tiểu Học Phú Kiết","type":"Trường học","image":"https://lh5.googleusercontent.com/p/AF1QipPwEjJiqyVqB2jHTGqQWSSGdQvLoahw5P9O594M=w408-h544-k-no", "address":"ĐT879, Phú Kiết, Chợ Gạo, Tiền Giang, Việt Nam","state":"Tiền Giang","latitude":10.519946064941772, "longitude": 106.3558136330754},
{"name":"Trường tiểu học Điềm Hy","type":"Trường học","image":"https://lh5.googleusercontent.com/p/AF1QipOYPXZLIFC8QDfPSi1BcnNGEwOWZj6wm03bDA9H=w427-h240-k-no", "address":"QL1A, Điềm Hy, Châu Thành, Tiền Giang, Việt Nam","state":"Tiền Giang","latitude":10.445675713678886, "longitude": 106.04270330714388},
{"name":"Trường tiểu học Giồng Dứa","type":"Trường học","image":"https://maps.gstatic.com/tactile/pane/default_geocode-1x.png", "address":"Đường Không Tên, Long Định, Châu Thành, Tiền Giang, Việt Nam","state":"Tiền Giang","latitude":10.434871271693831, "longitude": 106.28165592430214},
{"name":"Trường tiểu học Nguyễn Trãi","type":"Trường học","image":"https://lh5.googleusercontent.com/p/AF1QipNeg918TdtFQ_qYSZEBRmSjTl_hJk0y8dwFg4OK=w408-h306-k-no", "address":"170 Lê Lợi, Phường 7, Thành phố Mỹ Tho, Tiền Giang, Việt Nam","state":"Tiền Giang","latitude":10.38894821155363, "longitude": 106.44095766907432},
{"name":"Trường tiểu học Nguyễn Trãi","type":"Trường học","image":"https://lh5.googleusercontent.com/p/AF1QipNeg918TdtFQ_qYSZEBRmSjTl_hJk0y8dwFg4OK=w408-h306-k-no", "address":"11 Đường Hùng Vương, Phường 7, Thành phố Mỹ Tho, Tiền Giang, Việt Nam","state":"Tiền Giang","latitude":10.382194250433392, "longitude": 106.42447817823582},
{"name":"Trường tiểu học Tân Hiệp","type":"Trường học","image":"https://lh5.googleusercontent.com/p/AF1QipMCOd_1yhCVLYhjAW2dnPRQpqpptxcmCaWC7LcB=w408-h306-k-no", "address":"1 Ấp Cá TT.Tân Hiệp, TT. Tân Hiệp, Châu Thành, Tiền Giang, Việt Nam","state":"Tiền Giang","latitude":10.459180737923687, "longitude": 106.26517643346364},
{"name":"Trường tiểu học Thị Trấn Chợ Gạo","type":"Trường học","image":"https://lh5.googleusercontent.com/p/AF1QipO9Bl6NdxIsx-Chglw2_vqSxMjEJh81cTSVDuSx=w408-h306-k-no", "address":"QL50, TT. Chợ Gao, Chợ Gạo, Tiền Giang, Việt Nam","state":"Tiền Giang","latitude":10.437572417382668, "longitude": 106.45331728720319},
{"name":"Trường THPT chuyên Tiền Giang","type":"Trường học","image":"https://lh5.googleusercontent.com/p/AF1QipN68Vi6fEjgEEQrOfgIuZibdr5Yv4eqSYhxRXTi=w408-h306-k-no", "address":"D1, Trung An, Thành phố Mỹ Tho, Tiền Giang, Việt Nam","state":"Tiền Giang","latitude":10.386246644615515, "longitude": 106.21299137914174},
{"name":"Trường Tiểu Học Thành Công","type":"Trường học","image":"https://lh5.googleusercontent.com/p/AF1QipNb4RjLvBw0k6gaiSjdq11KRTECBw8AJ6TDpTUR=w408-h306-k-no", "address":"9JHM+H9F, Thành Công, Gò Công Tây, Tiền Giang, Việt Nam","state":"Tiền Giang","latitude":10.411910587047682, "longitude": 106.61124574107214},
{"name":"Trường tiểu học Tam Hiệp","type":"Trường học","image":"https://lh5.googleusercontent.com/p/AF1QipNr7IbwM6dNiZ33W5agXV9kJ1mpfnqQH984kaPG=w408-h306-k-no", "address":"C874+WQW, Ấp 1, Châu Thành, Tiền Giang, Việt Nam","state":"Tiền Giang","latitude":10.428118307953595, "longitude": 106.21711123881101},
{"name":"Trường THCS Thân Cửu Nghĩa","type":"Trường học","image":"https://lh5.googleusercontent.com/p/AF1QipPRsAUPY0wsibIh5bki0YErdw8TNNA6URk2xX2v=w408-h306-k-no", "address":"C8CP+MHV, Thân Cửu Nghĩa, Châu Thành, Tiền Giang, Việt Nam","state":"Tiền Giang","latitude":10.490240065601895, "longitude": 106.30912172932597},
{"name":"Trường Tiểu Học Bình Phan","type":"Trường học","image":"https://lh5.googleusercontent.com/p/AF1QipPRsAUPY0wsibIh5bki0YErdw8TNNA6URk2xX2v=w408-h306-k-no", "address":"9F6Q+PJ9, Bình Phan, Chợ Gạo, Tiền Giang, Việt Nam","state":"Tiền Giang","latitude":10.428118307953595, "longitude": 106.48078309222703},
{"name":"Trường Tiểu học Hồ Văn Nhánh","type":"Trường học","image":"https://lh5.googleusercontent.com/p/AF1QipO5Bu5N07f5TJfuTa4mozT15thh0D5HRm31wOSL=w426-h240-k-no", "address":"103 Trịnh Hoài Đức, Phường 3, Thành phố Mỹ Tho, Tiền Giang, Việt Nam","state":"Tiền Giang","latitude":10.365984149852267, "longitude": 106.24595035463581},
{"name":"Trường Tiểu Học Tân Tây 1","type":"Trường học","image":"https://lh5.googleusercontent.com/p/AF1QipNN_MMBDt6RLX7aruqNu-z2l7PnbXNEQ9qLq7jv=w426-h240-k-no", "address":"Tân Tây, Gò Công Đông, Tiền Giang, Việt Nam","state":"Tiền Giang","latitude":10.414611932970631, "longitude": 106.73209533437156},
{"name":"Trường Trung Cấp Kinh Tế Kỹ Thuật Công Đoàn Tiền Giang","type":"Trường học","image":"https://maps.gstatic.com/tactile/pane/default_geocode-1x.png", "address":"206 Nguyễn Thị Thập, Phường 5, Thành phố Mỹ Tho, Tiền Giang, Việt Nam","state":"Tiền Giang","latitude":10.371387610349744, "longitude": 106.25419010005504},
{"name":"Sở Giáo dục và Đào tạo","type":"Trường học","image":"https://lh5.googleusercontent.com/p/AF1QipPhMd24pvxp8-rLJj2ZAp1WZsQfic2Xd7tVGWpm=w426-h240-k-no", "address":"2Số 397 Đường Hùng Vương, Đạo Thành, Thành phố Mỹ Tho, Tiền Giang, Việt Nam","state":"Tiền Giang","latitude":10.398403512967427, "longitude": 106.43683779018177},
{"name":"Trường THCS Thạnh Nhựt","type":"Trường học","image":"https://lh5.googleusercontent.com/p/AF1QipN0DA9HyRmu7AtxyhrQpM1AfgacOwXlOUwERrW3=w408-h306-k-no", "address":"9G4Q+J29, Thạnh Nhật, Gò Công Tây, Tiền Giang, Việt Nam","state":"Tiền Giang","latitude":10.425417078212607, "longitude": 106.55356751695446},
{"name":"Trường tiểu học Hậu Thành","type":"Trường học","image":"https://lh5.googleusercontent.com/p/AF1QipMrUO2qswKmpV0jyVS8TKGh6K3cAhzQmYZs9MnZ=w408-h306-k-no", "address":"ấp Hậu Hòa, Hậu Thành, Cái Bè, Tiền Giang, Việt Nam","state":"Tiền Giang","latitude":10.403806413191967, "longitude": 106.03858342825134},
{"name":"Trường Trung Học Cơ Sở Tân Hiệp","type":"Trường học","image":"https://lh5.googleusercontent.com/p/AF1QipN5utVNTd8C-D4VtvgomT52EJLjGbU3YuiV3mQb=w408-h306-k-no", "address":"Ấp Cá TT.Tân Hiệp, TT. Tân Hiệp, Châu Thành, Tiền Giang, Việt Nam","state":"Tiền Giang","latitude":10.468633906389039, "longitude": 106.27066959089353},
{"name":"Trường Tiểu Học Tân Hương","type":"Trường học","image":"https://lh5.googleusercontent.com/p/AF1QipMXfNegVRSgz6_em-tdiqdXgJ740uDznM9VcLHN=w408-h306-k-no", "address":"Tân Phú, Tân Hương, Châu Thành, Tiền Giang, Việt Nam","state":"Tiền Giang","latitude":10.5118447122878, "longitude": 106.44095766289139},
{"name":"Trường Tiểu Học Ngô Văn Nhạc","type":"Trường học","image":"https://lh5.googleusercontent.com/p/AF1QipOKUGAAxiI9nJ38ZDPtu9b9o-z6mkmKEl_HvrUV=w408-h306-k-no", "address":"Ấp 3, Xã Mỹ Tân, Huyện Cái Bè, Tỉnh Tiền Giang., Mỹ Tân, Cái Bè, Tiền Giang, Việt Nam","state":"Tiền Giang","latitude":10.434871272770335, "longitude": 105.94519964683315},
{"name":"Trường tiểu học Âu Dương Lân","type":"Trường học","image":"https://lh5.googleusercontent.com/p/AF1QipOwDAhyetVg-SG0HMkRZaHlIvo61v_6fnc-fuR1=w408-h271-k-no", "address":"Đinh Bộ Lĩnh, Phường 9, Thành phố Mỹ Tho, Tiền Giang, Việt Nam","state":"Tiền Giang","latitude":10.386246645692198, "longitude": 106.4272247538593},
{"name":"Trường Cao đẳng Tiền Giang cơ sở 1","type":"Trường học","image":"https://lh5.googleusercontent.com/p/AF1QipPtEAsNr4XCBsAhBfpDnOEhtv8HWFRt1bV0KTzI=w408-h512-k-no", "address":"11b/17 Học Lạc, Phường 8, Thành phố Mỹ Tho, Tiền Giang, Việt Nam","state":"Tiền Giang","latitude":10.386246645692198, "longitude": 106.43409120837535},
{"name":"Trường tiểu học Bình Trưng","type":"Trường học","image":"https://maps.gstatic.com/tactile/pane/default_geocode-1x.png", "address":"Ap Binh Trung, Binh Trung, Chau Thanh, Tien Giang, Bình Trung, Châu Thành, Tiền Giang, Việt Nam","state":"Tiền Giang","latitude":10.440273542685436, "longitude": 106.20887149339177},
{"name":"Trường Tiểu Học Thiên Hộ Dương Cơ Sở 2","type":"Trường học","image":"https://lh5.googleusercontent.com/p/AF1QipPGAUnV0osBvFts8KghgqT1w-ttFwBhXSwZ6n_2=w408-h306-k-no", "address":"9984+VGR, Phường 5, Thành phố Mỹ Tho, Tiền Giang, Việt Nam","state":"Tiền Giang","latitude":10.429468910307149, "longitude": 106.3544403391369},
{"name":"Trường Tiểu học Mỹ Phong","type":"Trường học","image":"https://lh5.googleusercontent.com/p/AF1QipMc8CRRQU0XHslIriAjJPeCFKKAea6LMTMG5l0Y=w408-h306-k-no", "address":"999M+CH5, Mỹ Phong, Thành phố Mỹ Tho, Tiền Giang, Việt Nam","state":"Tiền Giang","latitude":10.384895852732123, "longitude": 106.39426577532994},
{"name":"Trường TCN Giao thông vận tải Tiền Giang (cơ sở 2)","type":"Trường học","image":"https://lh5.googleusercontent.com/p/AF1QipNqdIRm8jjrauOncceGjEgtcCVnU_r0-BfRh6EQ=w408-h802-k-no", "address":"87QV+657, Bình Đức, Châu Thành, Tiền Giang, Việt Nam","state":"Tiền Giang","latitude":10.307891071115563, "longitude": 106.27204288494438},
{"name":"Trường THCS Tam Hiệp","type":"Trường học","image":"https://lh5.googleusercontent.com/p/AF1QipNhNMMhvDGGvZJsa4ULtIa2QI17VL81Q_v77m31=w408-h544-k-no", "address":"C883+4G3, Tam Hiệp, Châu Thành, Tiền Giang, Việt Nam","state":"Tiền Giang","latitude":10.434871272035169, "longitude": 106.25007023049305},
{"name":"Trường Tiểu học Hòa Chánh(Chi nhánh của Tiểu học Mỹ Long, Cai Lậy, Tiền Giang)","type":"Trường học","image":"https://maps.gstatic.com/tactile/pane/default_geocode-1x.png", "address":"954C+X3V, Mỹ Long, Cai Lậy, Tiền Giang, Việt Nam","state":"Tiền Giang","latitude":10.38759743134477, "longitude": 106.16217961268774},
{"name":"Trường tiểu học Nhị Mỹ","type":"Trường học","image":"https://lh5.googleusercontent.com/p/AF1QipM81-QxXf924t6SsMzueKwu4Z8QESh1CNhUJclH=w408-h306-k-no", "address":"Năm Nhiều, Nhị Mỹ, Cai Lậy, Tiền Giang, Việt Nam","state":"Tiền Giang","latitude":10.425417077477418, "longitude":106.07978215849522},
{"name":"Trường Tiểu Học Tân Lý Tây B","type":"Trường học","image":"https://lh5.googleusercontent.com/p/AF1QipNaO5cfVqoIVQNs0wvGXSF4awTf1V2UHW6xYmrT=w408-h306-k-no", "address":"F87V+PRH, Tân Lý Tây, Châu Thành, Tiền Giang, Việt Nam","state":"Tiền Giang","latitude":10.487539375656928, "longitude":106.42997133881336},
{"name":"Trường tiểu học Trung An (Cơ sở 2)","type":"Trường học","image":"https://lh5.googleusercontent.com/p/AF1QipMhCspu_4wEGy2OlJShyD5IQK-xlG-xSe3NldnC=w408-h306-k-no", "address":"Ấp Chợ, Trung An, Thành phố Mỹ Tho, Tiền Giang, Việt Nam","state":"Tiền Giang","latitude":10.311944424913273, "longitude":106.34345401191123},
{"name":"Trường tiểu học Đoàn Thị Nghiệp","type":"Trường học","image":"https://lh5.googleusercontent.com/p/AF1QipOsgIAOF0kUAW151h46ZidDFCmmj8INy2YJTR2B=w408-h306-k-no", "address":"Ấp Mỹ Trung, Xã Mỹ Hội, Huyện Cái Bè, Mỹ Hội, Cái Bè, Tiền Giang, Việt Nam","state":"Tiền Giang","latitude":10.425417077477418, "longitude":105.88202826843322},
{"name":"Trường Trung Học Phổ Thông Vĩnh Bình","type":"Trường học","image":"https://lh5.googleusercontent.com/p/AF1QipMAich5tOmAYFc4VafINL1rllR42j1YykjWXDDf=w408-h272-k-no", "address":"9H6M+G3V, Đông Thạnh, Gò Công Tây, Tiền Giang, Việt Nam","state":"Tiền Giang","latitude":10.426767694279569, "longitude":106.58103333816628},
{"name":"Trường Năng Khiếu Thể Dục Thể Thao","type":"Trường học","image":"https://lh5.googleusercontent.com/p/AF1QipPz3LnivGpL9NNK1w9SIEW8FSB470n3ygLwwQhi=w408-h306-k-no", "address":"1 Phan Lương Trực, Phường 6, Thành phố Mỹ Tho, Tiền Giang, Việt Nam","state":"Tiền Giang","latitude":10.426767694279569, "longitude":106.39151919352352},
{"name":"Trường tiểu học Bình Đức","type":"Trường học","image":"https://lh5.googleusercontent.com/p/AF1QipMMus-LPvOjPvp_HISbZx_2-5iiuWqMqOZIt0hX=w408-h306-k-no", "address":"ĐT864, Bình Đức, Châu Thành, Tiền Giang, Việt Nam","state":"Tiền Giang","latitude":10.403806412456737, "longitude":106.27753604855722},
{"name":"Trường THPT Tứ Kiệt","type":"Trường học","image":"https://lh5.googleusercontent.com/p/AF1QipOxtpg6nUOxYTqbJRoqcge6il4lVMfNzGcYc0qD=w408-h306-k-no", "address":"C43Q+HJ8, Nhị Mỹ, Cai Lậy, Tiền Giang, Việt Nam","state":"Tiền Giang","latitude":10.464582583473836, "longitude":106.13059392191393},
{"name":"Trường THPT Trương Định","type":"Trường học","image":"https://lh5.googleusercontent.com/p/AF1QipNdjvBdaiBDUU3IYC7c2tS0x7epCxVRSvRiwJX5=w425-h240-k-no", "address":"10 Đường Nguyễn Văn Côn, Phường 2, Gò Công, Tiền Giang, Việt Nam","state":"Tiền Giang","latitude":10.39164975547972, "longitude":106.80350646448603},


{"name":"Trường Đại Học Trà Vinh","type":"Trường học","image":"https://lh5.googleusercontent.com/p/AF1QipPQzPJNzdO8-tfdsXJDeck6Abi0gcTjechmdCEV=w426-h240-k-no", "address":"126 Nguyễn Thiện Thành, Phường 5, Trà Vinh, Việt Nam","state":"Trà Vinh","latitude":9.931983655983535, "longitude":106.3434559487341},
{"name":"Trưòng Đại học Trà Vinh (Khu IV)","type":"Trường học","image":"https://lh5.googleusercontent.com/p/AF1QipMTj477LsKMJFi_YtQ0R5FPReIn3nVrTrmfAKu8=w423-h240-k-no", "address":"W8WR+489, Phường 1, Trà Vinh, Việt Nam","state":"Trà Vinh","latitude":9.958462316874531, "longitude":106.3431844911371},
{"name":"Trường Đại Học Trà Vinh","type":"Trường học","image":"https://lh5.googleusercontent.com/p/AF1QipMTj477LsKMJFi_YtQ0R5FPReIn3nVrTrmfAKu8=w423-h240-k-no", "address":"105 Kiên Thị Nhẫn, Phường 7, Trà Vinh, Việt Nam","state":"Trà Vinh","latitude":9.931681102461988, "longitude":106.3295896047943},
{"name":"Trường Trung Học Chuyên Trà Vinh","type":"Trường học","image":"https://maps.gstatic.com/tactile/pane/default_geocode-1x.png", "address":"28 Quang Trung, Phường 4, Trà Vinh, Việt Nam","state":"Trà Vinh","latitude":9.947611608134432, "longitude":106.37210120626986},
{"name":"Trường trung học cơ sở Minh Trí","type":"Trường học","image":"https://maps.gstatic.com/tactile/pane/default_geocode-1x.png", "address":"Nguyễn Chí Thanh, Phường 6, Trà Vinh, Việt Nam","state":"Trà Vinh","latitude":9.913455536144745, "longitude":106.33502235188325},
{"name":"Trường Trung Học Cơ Sở Nguyễn Thị Minh Khai","type":"Trường học","image":"https://maps.gstatic.com/tactile/pane/default_geocode-1x.png", "address":"số 1, khóm 6, tp, Thạch Thị Thanh, Phường 8, Trà Vinh, Việt Nam","state":"Trà Vinh","latitude":9.92055758714086, "longitude":106.28352394301294},
{"name":"Trường THPT Thành Phố Trà Vinh","type":"Trường học","image":"https://maps.gstatic.com/tactile/pane/default_geocode-1x.png", "address":"W8FP+6FG, Phường 9, Trà Vinh, Việt Nam","state":"Trà Vinh","latitude":9.930364928235857, "longitude":106.31167640652869},
{"name":"Trường THCS thị trấn Tiểu Cần","type":"Trường học","image":"https://maps.gstatic.com/tactile/pane/default_geocode-1x.png", "address":"R58R+456, TT. Tiểu Cần, Tiểu Cần, Trà Vinh, Việt Nam","state":"Trà Vinh","latitude":9.821537741850776, "longitude":106.2154440532503},
{"name":"Trường THCS Lý Tự Trọng","type":"Trường học","image":"https://maps.gstatic.com/tactile/pane/default_geocode-1x.png", "address":"1 Nguyễn Thị Minh Khai, Phường 1, Trà Vinh, Việt Nam","state":"Trà Vinh","latitude":9.943027915280945, "longitude":106.31936958979922},
{"name":"Trường THCS Trần Phú","type":"Trường học","image":"https://maps.gstatic.com/tactile/pane/default_geocode-1x.png", "address":"X87Q+FGC, Long Đức, Trà Vinh, Việt Nam","state":"Trà Vinh","latitude":9.971094488400777, "longitude":106.36640480323408},
{"name":"Trường THCS Hiếu Trung","type":"Trường học","image":"https://maps.gstatic.com/tactile/pane/default_geocode-1x.png", "address":"X87Q+FGC, Long Đức, Trà Vinh, Việt Nam","state":"Trà Vinh","latitude":9.865913927558209, "longitude":106.20165660783105},
{"name":"Trường THCS Trần Quốc Tuấn","type":"Trường học","image":"https://maps.gstatic.com/tactile/pane/default_geocode-1x.png", "address":"W8MQ+JWJ, Phường 2, Trà Vinh, Việt Nam","state":"Trà Vinh","latitude":9.937614150601375, "longitude":106.30980326645872},
{"name":"Trường Trung Cấp Phật Học Tỉnh Trà Vinh","type":"Trường học","image":"https://maps.gstatic.com/tactile/pane/default_geocode-1x.png", "address":"3 Lê Lợi, Phường 1, Trà Vinh, Việt Nam","state":"Trà Vinh","latitude":9.949111784031233, "longitude":106.38430431001446},
{"name":"Trường Trung học cơ sở B An Trường","type":"Trường học","image":"https://lh5.googleusercontent.com/p/AF1QipN16ZiieUhBlBJaF0fjKAP3mNtYUybapiB4hza9=w408-h544-k-no", "address":"số 188, Hương lộ 2, thuộc ấp 4A, Càng Long, Trà Vinh, Việt Nam","state":"Trà Vinh","latitude":9.977177833826847, "longitude":106.20680646077479},
{"name":"Trường THCS Tập Ngãi","type":"Trường học","image":"https://lh5.googleusercontent.com/p/AF1QipN16ZiieUhBlBJaF0fjKAP3mNtYUybapiB4hza9=w408-h544-k-no", "address":"ĐT912, Tập Ngãi, Tiểu Cần, Trà Vinh, Việt Nam","state":"Trà Vinh","latitude":9.81776661212731, "longitude":106.27310862599231},
{"name":"Trường THCS Huyền Hội","type":"Trường học","image":"https://lh5.googleusercontent.com/p/AF1QipN16ZiieUhBlBJaF0fjKAP3mNtYUybapiB4hza9=w408-h544-k-no", "address":"ĐH6, Huyền Hội, Càng Long, Trà Vinh, Việt Nam","state":"Trà Vinh","latitude":9.928923555418505, "longitude":106.25540841233091},
{"name":"Trường THCS Tân An","type":"Trường học","image":"https://lh5.googleusercontent.com/p/AF1QipN16ZiieUhBlBJaF0fjKAP3mNtYUybapiB4hza9=w408-h544-k-no", "address":"W47X+772, Tân An, Càng Long, Trà Vinh, Việt Nam","state":"Trà Vinh","latitude":9.919116171153393, "longitude":106.18708718989627},
{"name":"Trường Trung Học Cơ Sở Hòa Minh B","type":"Trường học","image":"https://maps.gstatic.com/tactile/pane/default_geocode-1x.png", "address":"R8MF+748, Mỹ Chánh, Châu Thành, Trà Vinh, Việt Nam","state":"Trà Vinh","latitude": 9.845843721673809, "longitude":106.33759667147623},
{"name":"Trường Thcs Thái Bình","type":"Trường học","image":"https://maps.gstatic.com/tactile/pane/default_geocode-1x.png", "address":"QL53, Khóm 5, Càng Long, Trà Vinh, Việt Nam","state":"Trà Vinh","latitude": 9.993981159750756, "longitude":106.24156467137918},
{"name":"Trường THCS Trương Văn Trì","type":"Trường học","image":"https://maps.gstatic.com/tactile/pane/default_geocode-1x.png", "address":"159 QL53, Phước Hảo, Châu Thành, Trà Vinh, Việt Nam","state":"Trà Vinh","latitude": 9.888133622600517, "longitude":106.42036238507288},
{"name":"Trường THPT Vũ Đình Liệu","type":"Trường học","image":"https://maps.gstatic.com/tactile/pane/default_geocode-1x.png", "address":"V89X+MFH, TT. Châu Thành, Châu Thành, Trà Vinh, Việt Nam","state":"Trà Vinh","latitude": 9.876972085456499, "longitude":106.35616103534788},
{"name":"Trường Trung học cơ sở Hoà Minh B","type":"Trường học","image":"https://maps.gstatic.com/tactile/pane/default_geocode-1x.png", "address":"Long Hưng I -hoà Minh Huyện Châu Thành, Hoà Minh, Châu Thành, Trà Vinh, Việt Nam","state":"Trà Vinh","latitude": 9.933452329564462, "longitude":106.4735774075722},
{"name":"Trường Thpt Dân Tộc Nội Trú Trà Vinh","type":"Trường học","image":"https://maps.gstatic.com/tactile/pane/default_geocode-1x.png", "address":"X85W+FV4, Long Đức, Trà Vinh, Việt Nam","state":"Trà Vinh","latitude": 9.964181090068903, "longitude":106.35836829723777},
{"name":"Trường tiểu học hiếu trung A","type":"Trường học","image":"https://maps.gstatic.com/tactile/pane/default_geocode-1x.png", "address":"Unnamed Road, Hiếu Trung, Tiểu Cần, Trà Vinh, Việt Nam","state":"Trà Vinh","latitude": 9.871187312710134, "longitude":106.23627927905305},
{"name":"Trường THCS Lương Hòa","type":"Trường học","image":"https://maps.gstatic.com/tactile/pane/default_geocode-1x.png", "address":"W846+6RF, Lương Hoà, Châu Thành, Trà Vinh, Việt Nam","state":"Trà Vinh","latitude": 9.916508359481279, "longitude":106.26031186985921},
{"name":"Trường Trung Học Cơ Sở Thị Trấn Tiểu Cần","type":"Trường học","image":"https://maps.gstatic.com/tactile/pane/default_geocode-1x.png", "address":"Đường nội ô, ĐT912, Tiểu Cần, Trà Vinh, Việt Nam","state":"Trà Vinh","latitude": 9.817741050503848, "longitude":106.2472656062787},
{"name":"Trường Trung Học Cơ Sở Bình Phú","type":"Trường học","image":"https://maps.gstatic.com/tactile/pane/default_geocode-1x.png", "address":"Bình Phú, Càng Long, Trà Vinh, Việt Nam","state":"Trà Vinh","latitude": 9.994283591937336, "longitude":106.27061155163327},
{"name":"Sở Giáo dục và Đào tạo tỉnh Trà Vinh","type":"Trường học","image":"https://lh5.googleusercontent.com/p/AF1QipM1PS7EIKo3FO5te7H4fFGqGIC21zOLAI88NoAC=w408-h295-k-no", "address":"7 Mười Chín Tháng Năm, Phường 1, TP. Trà Vinh, Trà Vinh, Việt Nam","state":"Trà Vinh","latitude": 9.954383830871956, "longitude":106.29807736969742},
{"name":"TRƯỜNG PTDTNT-THCS-HUYỆN CÀNG LONG","type":"Trường học","image":"https://lh5.googleusercontent.com/p/AF1QipPxjUBHAzNYCeVfoA4idnW-a_olZkgNFN1vXu_p=w408-h597-k-no", "address":"Ấp Lưu Tư, Huyền Hội, Càng Long, Trà Vinh, Việt Nam","state":"Trà Vinh","latitude": 9.943562715258054, "longitude":106.25687864260117},
{"name":"Trường THPT Chuyên Nguyễn Thiện Thành","type":"Trường học","image":"https://lh5.googleusercontent.com/p/AF1QipPvmRwDgk3s0L0QsZzbcVRNa2-eFGRjWkXP03hx=w426-h240-k-no", "address":"Ấp Long Bình, phường 4, Long Đức, Trà Vinh, Việt Nam","state":"Trà Vinh","latitude": 9.997664702850845, "longitude":106.32142331505197},
{"name":"Trường phổ thông dân tộc nội trú, trường trung học co sở huyện càng long","type":"Trường học","image":"https://lh5.googleusercontent.com/p/AF1QipOR_glUePcTqVlyMgvTX1ZcV_PwxR0VncKge7H7=w519-h240-k-no", "address":"ĐH6, Huyền Hội, Càng Long, Trà Vinh, Việt Nam","state":"Trà Vinh","latitude": 9.942210050605707, "longitude":106.1786010611183},
{"name":"Trường cao đẳng nghề Trà Vinh","type":"Trường học","image":"https://lh5.googleusercontent.com/p/AF1QipOR_glUePcTqVlyMgvTX1ZcV_PwxR0VncKge7H7=w519-h240-k-no", "address":"ĐH6, Huyền Hội, Càng Long, Trà Vinh, Việt Nam","state":"Trà Vinh","latitude": 9.942210050605707, "longitude":106.1786010611183},
{"name":"Trường Trung Học Phổ Thông Hồ Thị Nhâm","type":"Trường học","image":"https://maps.gstatic.com/tactile/pane/default_geocode-1x.png", "address":"ĐH6, Huyền Hội, Càng Long, Trà Vinh, Việt Nam","state":"Trà Vinh","latitude": 9.953707521650221, "longitude":106.38459469659956},
{"name":"Trường THCS Phường 8","type":"Trường học","image":"https://maps.gstatic.com/tactile/pane/default_geocode-1x.png", "address":"Thạch Thị Thanh, Phường 8, Trà Vinh, Việt Namm","state":"Trà Vinh","latitude": 9.906362399920235, "longitude":106.2781646516009},
{"name":"Trường THPT Nguyễn Đáng","type":"Trường học","image":"https://maps.gstatic.com/tactile/pane/default_geocode-1x.png", "address":"X6M2+3J5, TT. Càng Long, Càng Long, Trà Vinh, Việt Nam","state":"Trà Vinh","latitude": 10.000567928408508, "longitude":106.23043649750086},
{"name":"Trung Tâm GDTX Trà Vinh","type":"Trường học","image":"https://maps.gstatic.com/tactile/pane/default_geocode-1x.png", "address":"phường 1 tp. Trà Vinh, 118B Phạm Ngũ Lão, Phường 1, Trà Vinh, Việt Nam","state":"Trà Vinh","latitude": 9.951200661536486, "longitude":106.27987497625551},
{"name":"Trường THCS Trương Văn Trì","type":"Trường học","image":"https://maps.gstatic.com/tactile/pane/default_geocode-1x.png", "address":"ấp Đại Thôn,, Phước Hảo, Châu Thành, Trà Vinh, Việt Nam","state":"Trà Vinh","latitude": 9.895061691232412, "longitude":106.41995064838275},
{"name":"Trường THCS Hựu Thành A","type":"Trường học","image":"https://maps.gstatic.com/tactile/pane/default_geocode-1x.png", "address":"Khu phố, Hựu Thành, Trà Ôn, Vĩnh Long, Việt Nam","state":"Trà Vinh","latitude":9.968784380831416, "longitude":106.10684032245128},
{"name":"Trường Thcs Cầu Quan","type":"Trường học","image":"https://maps.gstatic.com/tactile/pane/default_geocode-1x.png", "address":"1 Khóm 1, Long Đức, Trà Vinh, Việt Nam","state":"Trà Vinh","latitude":9.991100812357125, "longitude":106.40347115754426},
{"name":"Trường THCS Phú Cần","type":"Trường học","image":"https://maps.gstatic.com/tactile/pane/default_geocode-1x.png", "address":"54, Phú Cần, Tiểu Cần, Trà Vinh, Việt Nam","state":"Trà Vinh","latitude":9.816252599580958, "longitude":106.21111920320176},
{"name":"Trường trung học cơ sở an trường B","type":"Trường học","image":"https://maps.gstatic.com/tactile/pane/default_geocode-1x.png", "address":"242P+H7R, An Trường A, Càng Long, Trà Vinh, Việt Nam","state":"Trà Vinh","latitude":10.005038086827652, "longitude":106.15897993962129},
{"name":"THCS Tân Hùng","type":"Trường học","image":"https://maps.gstatic.com/tactile/pane/default_geocode-1x.png", "address":"QL54, Tân Hùng, Tiểu Cần, Trà Vinh, Việt Nam","state":"Trà Vinh","latitude":9.80246169051716, "longitude":106.21781792602462},
{"name":"Trường Trung Học Phổ Thông Dân Tộc Nội Trú Tiểu Cần","type":"Trường học","image":"https://maps.gstatic.com/tactile/pane/default_geocode-1x.png", "address":"R52J+977, Phú Cần, Tiểu Cần, Trà Vinh, Việt Nam","state":"Trà Vinh","latitude":9.806183084428113, "longitude":106.19275536704106},
{"name":"Trường THCS TT Cầu Quan","type":"Trường học","image":"https://maps.gstatic.com/tactile/pane/default_geocode-1x.png", "address":"Q49J+PX2, Long Thới, Tiểu Cần, Trà Vinh, Việt Nam","state":"Trà Vinh","latitude":9.772689036535146, "longitude":106.14297357413238},
{"name":"Trường THPT Phong Phú","type":"Trường học","image":"https://lh5.googleusercontent.com/p/AF1QipOFi3Fxc6E-li5tOJYHBaLWHDJ0NjTPidkI4qbl=w408-h306-k-no", "address":"ĐH51, Phong Phú, Cầu Kè, Trà Vinh, Việt Nam","state":"Trà Vinh","latitude":9.846777391333287, "longitude":106.10555139701997},
{"name":"Trường trung học antrường","type":"Trường học","image":"https://maps.gstatic.com/tactile/pane/default_geocode-1x.png", "address":"ĐH2, An Trường, Càng Long, Trà Vinh, Việt Nam","state":"Trà Vinh","latitude":9.951565704247168, "longitude":106.1952806077987},
{"name":"Trường PTDTNT Trà Vinh","type":"Trường học","image":"https://maps.gstatic.com/tactile/pane/default_geocode-1x.png", "address":"X942+C8Q, Phường 4, Long Bình, Trà Vinh, Việt Nam","state":"Trà Vinh","latitude":9.964371930982042, "longitude":106.36596669420203},
{"name":"Trường Thpt Hòa Minh","type":"Trường học","image":"https://maps.gstatic.com/tactile/pane/default_geocode-1x.png", "address":"Giồng giá, Hoà Minh, Châu Thành, Trà Vinh, Việt Nam","state":"Trà Vinh","latitude":9.91704033329784, "longitude":106.50856192139534},
{"name":"Truong Trung học cơ sở Lương Hoà","type":"Trường học","image":"https://maps.gstatic.com/tactile/pane/default_geocode-1x.png", "address":"W846+6R2, Lương Hoà, Châu Thành, Trà Vinh, Việt Nam","state":"Trà Vinh","latitude":9.912445124311514, "longitude":106.34496327594377},
{"name":"Trường THCS Thị trấn Châu Thành","type":"Trường học","image":"https://maps.gstatic.com/tactile/pane/default_geocode-1x.png", "address":"Hai Tháng Chín, TT. Châu Thành, Châu Thành, Trà Vinh, Việt Nam","state":"Trà Vinh","latitude":9.887755769284716, "longitude":106.358352867112},
{"name":"Trường THCS Thạnh Phú","type":"Trường học","image":"https://maps.gstatic.com/tactile/pane/default_geocode-1x.png", "address":"Đường tỉnh 911, Việt Nam","state":"Trà Vinh","latitude":9.940934048864563, "longitude":106.15051233049216},
{"name":"Trường THCS Thị Trấn Cầu Ngang","type":"Trường học","image":"https://maps.gstatic.com/tactile/pane/default_geocode-1x.png", "address":"QFR2+RQG, TT. Cầu Ngang, Cầu Ngang, Trà Vinh, Việt Nam","state":"Trà Vinh","latitude":9.799677236027216, "longitude":106.46705689420203},
{"name":"THCS Đại Phúc","type":"Trường học","image":"https://maps.gstatic.com/tactile/pane/default_geocode-1x.png", "address":"ĐT7, Đại Phúc, Càng Long, Trà Vinh, Việt Nam","state":"Trà Vinh","latitude":9.99185473903976, "longitude":106.32223028960512},
{"name":"Trường Trung Học Phổ Thông Hòa Lợi","type":"Trường học","image":"https://maps.gstatic.com/tactile/pane/default_geocode-1x.png", "address":"197 QL53, Hoà Lợi, Châu Thành, Trà Vinh, Việt Nam","state":"Trà Vinh","latitude":9.916959242041806, "longitude":106.40534558050831},
{"name":"Trường tiểu học hiếu trung A","type":"Trường học","image":"https://maps.gstatic.com/tactile/pane/default_geocode-1x.png", "address":"Unnamed Road, Hiếu Trung, Tiểu Cần, Trà Vinh, Việt Nam","state":"Trà Vinh","latitude":9.88537272861442, "longitude":106.19930410783104},
{"name":"Trường Trung cấp Văn hóa Nghệ thuật Trà Vinh","type":"Trường học","image":"https://maps.gstatic.com/tactile/pane/default_geocode-1x.png", "address":"26 Phạm Ngũ Lão, Phường 1, Trà Vinh, Việt Nam","state":"Trà Vinh","latitude":9.962828510834411, "longitude":106.35356177907657},
{"name":"Trường tiểu học hiếu Trung b","type":"Trường học","image":"https://maps.gstatic.com/tactile/pane/default_geocode-1x.png", "address":"ĐH2, Hiếu Trung, Tiểu Cần, Trà Vinh, Việt Nam","state":"Trà Vinh","latitude":9.865362278338194, "longitude":106.21240682595992},
{"name":"Trường THPT Hòa Lợi","type":"Trường học","image":"https://maps.gstatic.com/tactile/pane/default_geocode-1x.png", "address":"QL53, Hoà Lợi, Châu Thành, Trà Vinh, Việt Nam","state":"Trà Vinh","latitude":9.904922547302272, "longitude":106.41473178960509},
{"name":"Trường THCS An Trường A","type":"Trường học","image":"https://maps.gstatic.com/tactile/pane/default_geocode-1x.png", "address":"9c, Trà Vinh, Việt Nam","state":"Trà Vinh","latitude":10.00616929398921, "longitude":106.1606935532503},
{"name":"Trường THCS Thanh Mỹ","type":"Trường học","image":"https://maps.gstatic.com/tactile/pane/default_geocode-1x.png", "address":"R873+3GX, Thanh Mỹ, Châu Thành, Trà Vinh, Việt Nam","state":"Trà Vinh","latitude":9.819680776137929, "longitude":106.25406319902544},
{"name":"Trường Cao đẳng Y tế Trà Vinh","type":"Trường học","image":"https://maps.gstatic.com/tactile/pane/default_geocode-1x.png", "address":"07 Nguyễn Thiện Thành, Phường 5, Tp. Trà Vinh, Trà Vinh, Việt Nam","state":"Trà Vinh","latitude":9.929618715598249, "longitude":106.37053829416968},
{"name":"Trường Thpt Tập Ngãi","type":"Trường học","image":"https://maps.gstatic.com/tactile/pane/default_geocode-1x.png", "address":"Tập Ngãi, Tiểu Cần, Trà Vinh, Việt Nam","state":"Trà Vinh","latitude":9.81359729189449, "longitude":106.25482934437998},
{"name":"Trường thcs Thị trấn Mỹ Long","type":"Trường học","image":"https://maps.gstatic.com/tactile/pane/default_geocode-1x.png", "address":"98 ĐH19, TT. Mỹ Long, Cầu Ngang, Trà Vinh, Việt Nam","state":"Trà Vinh","latitude":9.815941658359927, "longitude":106.52581195328267},
{"name":"Trường Thực hành Sư phạm","type":"Trường học","image":"https://maps.gstatic.com/tactile/pane/default_geocode-1x.png", "address":"227 Phạm Ngũ Lão, Phường 1, Trà Vinh, Việt Nam","state":"Trà Vinh","latitude":9.951271346144708, "longitude":106.32520397160567},
{"name":"THPT Dương Háo Học","type":"Trường học","image":"https://maps.gstatic.com/tactile/pane/default_geocode-1x.png", "address":"W554+XXP, Tân An, Càng Long, Trà Vinh, Việt Nam","state":"Trà Vinh","latitude":9.91857729119117, "longitude":106.18319589870188},
{"name":"Trường THPT Cầu Quan","type":"Trường học","image":"https://maps.gstatic.com/tactile/pane/default_geocode-1x.png", "address":"Q48C+MJH, TT. Cầu Quan, Tiểu Cần, Trà Vinh, Việt Nam","state":"Trà Vinh","latitude":9.776002108432216, "longitude":106.16281432136302},
{"name":"Trường THCS Hòa Thuận","type":"Trường học","image":"https://maps.gstatic.com/tactile/pane/default_geocode-1x.png", "address":"ĐH10, Hoà Thuận, Châu Thành, Trà Vinh, Việt Nam","state":"Trà Vinh","latitude":9.949779671622334, "longitude":106.38004636691167},
{"name":"Trường THPT Hồ Thị Nhâm","type":"Trường học","image":"https://maps.gstatic.com/tactile/pane/default_geocode-1x.png", "address":"Nhị Long, Càng Long, Trà Vinh, Việt Nam","state":"Trà Vinh","latitude":10.01503782980881, "longitude":106.28288603550966},
{"name":"Trường Trung Cấp Pali","type":"Trường học","image":"https://maps.gstatic.com/tactile/pane/default_geocode-1x.png", "address":"Số 275, Đường Nguyễn Du, khóm 3, Châu Thành, Trà Vinh, Việt Nam","state":"Trà Vinh","latitude":9.917991177076352, "longitude":106.27876616246276},
{"name":"Trường THCS thị trấn Trà Cú","type":"Trường học","image":"https://maps.gstatic.com/tactile/pane/default_geocode-1x.png", "address":"P725+8C3, TT. Trà Cú, Trà Cú, Trà Vinh, Việt Nam","state":"Trà Vinh","latitude":9.707358601314466, "longitude":106.2842972987019},
{"name":"Trường THPT Hựu Thành","type":"Trường học","image":"https://maps.gstatic.com/tactile/pane/default_geocode-1x.png", "address":"X35J+HXF, Hựu Thành, Trà Ôn, Vĩnh Long, Việt Nam","state":"Trà Vinh","latitude":9.967220658634954, "longitude":106.09477751239562},
{"name":"THCS Thanh Mỹ","type":"Trường học","image":"https://maps.gstatic.com/tactile/pane/default_geocode-1x.png", "address":"An Chay, Thanh Mỹ, Châu Thành, Trà Vinh, Việt Nam","state":"Trà Vinh","latitude":9.821555231319545, "longitude":106.32671484871807},
{"name":"Trường THPT Cầu Ngang A","type":"Trường học","image":"https://maps.gstatic.com/tactile/pane/default_geocode-1x.png", "address":"An Chay, Thanh Mỹ, Châu Thành, Trà Vinh, Việt Nam","state":"Trà Vinh","latitude":9.809649929576912, "longitude":106.47687983075097},

{"name":"Trường Tiểu Học Lương Thế Vinh","type":"Trường học","image":"https://maps.gstatic.com/tactile/pane/default_geocode-1x.png", "address":"692 Điện Biên Phủ, Khóm 9, Trà Vinh, Việt Nam","state":"Trà Vinh","latitude":9.936099433879768, "longitude":106.3669511740425},
{"name":"Trường Tiểu học Lê Văn Tám","type":"Trường học","image":"https://lh5.googleusercontent.com/p/AF1QipPqvCKC4SXN8O5GHcdoCIyV-BCl7QIkDTB1e5Xh=w408-h283-k-no", "address":"41 Tô Thị Huỳnh, Phường 1, Trà Vinh, Việt Nam","state":"Trà Vinh","latitude":9.960108847881209, "longitude":106.33399219236549},
{"name":"Trường Tiểu Học Phường 6","type":"Trường học","image":"https://maps.gstatic.com/tactile/pane/default_geocode-1x.png", "address":"73 Điện Biên Phủ, Phường 6, Trà Vinh, Việt Nam","state":"Trà Vinh","latitude":9.932717684571685, "longitude":106.36248797860706},
{"name":"Trường Mẫu Giáo Tiểu Học Việt Anh - Trà Vinh","type":"Trường học","image":"https://lh5.googleusercontent.com/p/AF1QipMACD1tkzkGNp7y0J68NORMlTdou2gbSDDM6ymO=w427-h240-k-no", "address":"308 Phạm Ngũ Lão, Phường 1, Trà Vinh, Việt Nam","state":"Trà Vinh","latitude":9.946582634481487, "longitude":106.30103321068849},
{"name":"Trường Tiểu Học Hùng Vương","type":"Trường học","image":"https://lh5.googleusercontent.com/p/AF1QipMx8ddb3pNYcY5EoslzNRk0vbaVvgmo-MsJNh3Q=w408-h306-k-no", "address":"2 Hùng Vương, Phường 4, Trà Vinh, Việt Nam","state":"Trà Vinh","latitude":9.9448918184161, "longitude":106.36969775584892},
{"name":"Trường Tiểu Học Thị Trấn Tiểu Cần","type":"Trường học","image":"https://lh5.googleusercontent.com/p/AF1QipMxIw1noeDByKzRDgSkAueoy0zDOjY3-CI6b1Pu=w525-h240-k-no", "address":"94 QL60, TT. Tiểu Cần, Tiểu Cần, Trà Vinh, Việt Nam","state":"Trà Vinh","latitude":9.822818007332755, "longitude": 106.22232473958893},
{"name":"Trường Tiểu Học Huyền Hội A","type":"Trường học","image":"https://lh5.googleusercontent.com/p/AF1QipOZrSmsM2xa9loN5ZBUkxtBi3df8jPkFienhXDR=w408-h306-k-no", "address":"W6GJ+RCV, Huyền Hội, Càng Long, Trà Vinh, Việt Nam","state":"Trà Vinh","latitude":9.932021409012227, "longitude": 106.25406181689547},
{"name":"Trường Tiểu học Bình Minh","type":"Trường học","image":"https://lh5.googleusercontent.com/p/AF1QipP8uUAuVjaQY6hIbRXilIXTVl8HIK-D_SDt2PIu=w408-h306-k-no", "address":"W8RQ+3XQ, Phường 1, Trà Vinh, Việt Nam","state":"Trà Vinh","latitude":9.958398181961524, "longitude":106.33989249834596},
{"name":"Trường Tiểu Học Phường 9","type":"Trường học","image":"https://maps.gstatic.com/tactile/pane/default_geocode-1x.png", "address":"20, Đường Điện Biên Phủ, Khóm 5, Trà Vinh, Việt Nam","state":"Trà Vinh","latitude":9.898015312438655, "longitude":106.3663257836171},
{"name":"Trường tiểu học Minh Trí","type":"Trường học","image":"https://maps.gstatic.com/tactile/pane/default_geocode-1x.png", "address":"176 Đường Trần Phú, Phường 2, Trà Vinh, Việt Nam","state":"Trà Vinh","latitude":9.938260128313544, "longitude":106.30864756568235},
{"name":"Trường Tiểu học Tô Thị Huỳnh","type":"Trường học","image":"https://maps.gstatic.com/tactile/pane/default_geocode-1x.png", "address":"W845+RH5, Lương Hoà, Châu Thành, Trà Vinh, Việt Nam","state":"Trà Vinh","latitude":9.909852535946637, "longitude":106.2993778520857},
{"name":"Trường tiểu học Lương Định Của","type":"Trường học","image":"https://maps.gstatic.com/tactile/pane/default_geocode-1x.png", "address":"X86W+6P5, Long Đức, Trà Vinh, Việt Nam","state":"Trà Vinh","latitude":9.969708512615513, "longitude":106.36872904269772},
{"name":"Trường Tiểu học Nguyễn Hiền","type":"Trường học","image":"https://maps.gstatic.com/tactile/pane/default_geocode-1x.png", "address":"W83V+MGW, Phường 9, Trà Vinh, Việt Nam","state":"Trà Vinh","latitude":9.908837933522507, "longitude":106.35945932910106},
{"name":"Trường Tiểu Học Thị Trấn Châu Thành","type":"Trường học","image":"https://lh5.googleusercontent.com/p/AF1QipPNIgBqmGOf6X-OmpfrUed3SqmAQiYP50Pv_mS3=w408-h306-k-no", "address":"3 Tháng 2, TT. Châu Thành, Châu Thành, Trà Vinh, Việt Nam","state":"Trà Vinh","latitude":9.877991986201362, "longitude":106.35272673704416},
{"name":"Trường Tiểu Học Phường 7","type":"Trường học","image":"https://lh5.googleusercontent.com/p/AF1QipPvLZ1IqT2u2Vqrh7fU0EsON6uedL51vaYGJLgq=w408-h544-k-no", "address":"4 Nguyễn Thị Minh Khai, Phường 7, Trà Vinh, Việt Nam","state":"Trà Vinh","latitude":9.932442999270071, "longitude":106.33315734167343},
{"name":"Trường tiểu học hiếu tử c","type":"Trường học","image":"https://maps.gstatic.com/tactile/pane/default_geocode-1x.png", "address":"QL60, Hiếu Tử, Tiểu Cần, Trà Vinh, Việt Nam","state":"Trà Vinh","latitude":9.8624328964725, "longitude":106.21608429217493},
{"name":"Trường Tiểu Học Tập Ngãi C","type":"Trường học","image":"https://maps.gstatic.com/tactile/pane/default_geocode-1x.png", "address":"ĐH13, Tập Ngãi, Tiểu Cần, Trà Vinh, Việt Nam","state":"Trà Vinh","latitude":9.820626639135066, "longitude":106.29651586125998},

{"name":"Bệnh viện Đa khoa Trà Vinh","type":"Bệnh viện","image":"https://lh5.googleusercontent.com/p/AF1QipPiSLbv5ZWa9Tn3_Ieu52FEtP50kHvER_7jnItx=w408-h306-k-no", "address":"27 Điện Biên Phủ, Phường 6, tp. Trà Vinh, Trà Vinh, Việt Nam","state":"Trà Vinh","latitude":9.926586293903995, "longitude":106.34178747935911},
{"name":"Bệnh Viện Đa Khoa Minh Tâm","type":"Bệnh viện","image":"https://lh5.googleusercontent.com/p/AF1QipOqWrWN6jcQHkaSDuuxuT1wIll4VYU5EnVnM16J=w408-h816-k-no", "address":"36 Đ. Nguyễn Đáng, Phường 9, Trà Vinh, Việt Nam","state":"Trà Vinh","latitude":9.925064466803859, "longitude":106.33715262256078},
{"name":"Bệnh viện đa khoa tỉnh Trà Vinh (bệnh viện mới)","type":"Bệnh viện","image":"https://lh5.googleusercontent.com/p/AF1QipOMm7w81UmfXcMxpfzocdth9uU9n_0VR2dNIv6q=w408-h544-k-no", "address":"Unnamed Road, Phường 7, Trà Vinh, Việt Nam","state":"Trà Vinh","latitude":9.934533498251756, "longitude":106.32676711010527},
{"name":"Bệnh viện Sản - Nhi Trà Vinh","type":"Bệnh viện","image":"https://lh5.googleusercontent.com/p/AF1QipNt5xt0biBCTjFxAcfeScWNM99NFHR1GtkwhMB1=w408-h408-k-no", "address":"W8H2+5HG, Nguyệt Hoá, Châu Thành, Trà Vinh, Việt Nam","state":"Trà Vinh","latitude":9.929069824652183, "longitude":106.30347982029741},
{"name":"Bệnh Viện Đa Khoa Khu Vực Tiểu Cần","type":"Bệnh viện","image":"https://maps.gstatic.com/tactile/pane/default_geocode-1x.png", "address":"16A Nguyễn Thái Học, Phường 1, Trà Vinh, Việt Nam","state":"Trà Vinh","latitude":9.942316598739815, "longitude": 106.34328834188207},
{"name":"Bệnh viện Trường Đại Học Trà Vinh","type":"Bệnh viện","image":"https://lh5.googleusercontent.com/p/AF1QipOiV190Zcb3M5ynBNDtJVUfsZrZGDDq00qQfCfY=w426-h240-k-no", "address":"126 Nguyễn Thiện Thành, Phường 5, Trà Vinh, 940000, Việt Nam","state":"Trà Vinh","latitude":9.925426725053862, "longitude": 106.34939564302323},
{"name":"Bệnh Viện Quân Y Trà Vinh","type":"Bệnh viện","image":"https://lh5.googleusercontent.com/p/AF1QipNDpDCdNJ03Z1PsZA7oydZKdurauJuMrB5UtIHa=w408-h271-k-no", "address":"215 Nguyễn Thị Minh Khai, Phường 7, Trà Vinh, Việt Nam","state":"Trà Vinh","latitude":9.929949907639744, "longitude": 106.33334530559196},
{"name":"Khoa Khám Bệnh - Bệnh Viện Đa Khoa Trà Vinh","type":"Bệnh viện","image":"https://lh5.googleusercontent.com/p/AF1QipMER-DpAVKcsaMc93qGs6IbpTtNKDc1QIA95Lw=w408-h306-k-no", "address":"Nguyễn Văn Trỗi, Phường 6, Trà Vinh, Việt Nam","state":"Trà Vinh","latitude":9.92817446024439, "longitude": 106.33720768625724},
{"name":"Bệnh Viện Đa Khoa Thị Xã Duyên Hải","type":"Bệnh viện","image":"https://maps.gstatic.com/tactile/pane/default_geocode-1x.png", "address":"16A Nguyễn Thái Học, Phường 1, Trà Vinh, Việt Nam","state":"Trà Vinh","latitude":9.942612494514412, "longitude": 106.34204379700104},
{"name":"Bệnh viện đa khoa sài gòn trà vinh","type":"Bệnh viện","image":"https://maps.gstatic.com/tactile/pane/default_geocode-1x.png", "address":"48b Sơn Thông, Khóm 1, Trà Vinh, Việt Nam","state":"Trà Vinh","latitude":9.922984910880556, "longitude": 106.33498520438611},
{"name":"Bệnh viện Đa khoa Thiên Ân","type":"Bệnh viện","image":"https://maps.gstatic.com/tactile/pane/default_geocode-1x.png", "address":"Phường 5, Trà Vinh, Việt Nam","state":"Trà Vinh","latitude":9.93490577622316, "longitude": 106.35189384901831},
{"name":"Bệnh Viện Đa khoa Bích Thanh","type":"Bệnh viện","image":"https://maps.gstatic.com/tactile/pane/default_geocode-1x.png", "address":"W8GR+VWH, Khóm 9, Trà Vinh, Việt Nam","state":"Trà Vinh","latitude":9.927804036398179, "longitude": 106.34434074905067},
{"name":"Bệnh Viện Đa Khoa Duyên Hải","type":"Bệnh viện","image":"https://maps.gstatic.com/tactile/pane/default_geocode-1x.png", "address":"16A Nguyễn Thái Học, Phường 1, Trà Vinh, Việt Nam","state":"Trà Vinh","latitude":9.942020702697365, "longitude": 106.34028426803133},
{"name":"Bệnh viện Phổi Trà Vinh","type":"Bệnh viện","image":"https://maps.gstatic.com/tactile/pane/default_geocode-1x.png", "address":"Chợ Sâm Bua, Ấp, Châu Thành, Trà Vinh 87913, Việt Nam","state":"Trà Vinh","latitude":9.903585176224597, "longitude": 106.29558950552726},
{"name":"Bệnh viện Y Dược Cổ truyền Trà Vinh","type":"Bệnh viện","image":"https://maps.gstatic.com/tactile/pane/default_geocode-1x.png", "address":"81 QL53, Bến Có, Châu Thành, Trà Vinh, Việt Nam","state":"Trà Vinh","latitude":9.933654711889345, "longitude": 106.28803010438612},
{"name":"Trung Tâm Y Tế Dự Phòng Trà Vinh","type":"Bệnh viện","image":"https://lh5.googleusercontent.com/p/AF1QipMzT7827CL597o2t8R6PNf4iPTnrw9s3eyToz0=w408-h306-k-no", "address":"1 Tô Thị Huỳnh, Phường 4, Trà Vinh, Việt Nam","state":"Trà Vinh","latitude":9.940916142817974, "longitude": 106.34591712607367},
{"name":"TRUNG TÂM TIÊM CHỦNG TRÀ VINH","type":"Bệnh viện","image":"https://lh5.googleusercontent.com/p/AF1QipNS8xouk1CNeOIdzav835TJMx8HSkFrwZBYyvzb=w469-h240-k-no", "address":"Căn Nhà PG 2-11, Khu nhà phố Vincom, Phạm Ngũ Lão, Phường 2, Trà Vinh, 87000, Việt Nam","state":"Trà Vinh","latitude":9.939720535489856, "longitude": 106.33098702767934},
{"name":"Bệnh viện Đa khoa Trung tâm Tiền Giang","type":"Bệnh viện","image":"https://lh5.googleusercontent.com/p/AF1QipOSo9i-8H7LkH5dAXn5m0L6DcDhXnYVUc3cg3U=w408-h270-k-no", "address":"02 Đường Hùng Vương, Phường 1, Thành phố Mỹ Tho, Tiền Giang, Việt Nam","state":"Tiền Giang","latitude":10.374728878790233, "longitude": 106.36045830435737},
{"name":"Bệnh viện tiền Giang mới","type":"Bệnh viện","image":"https://maps.gstatic.com/tactile/pane/default_geocode-1x.png", "address":"Ấp, Long Hưng, Tiền Giang, Việt Nam","state":"Tiền Giang","latitude":10.449016187390788, "longitude": 106.32063286816432},
{"name":"Bệnh viện đa khoa tỉnh Tiền Giang","type":"Bệnh viện","image":"https://lh5.googleusercontent.com/p/AF1QipMh6Lf9jT-8EzBJJ3n45C_DhKXIJvWjKhXxWJpo=w408-h244-k-no", "address":"98V7+2P4, Phước Thạnh, Châu Thành, Tiền Giang, Việt Nam","state":"Tiền Giang","latitude":10.424705926339518, "longitude": 106.34397881351886},
{"name":"Bệnh Viện Đa Khoa Chất Lượng Cao Tiền Giang","type":"Bệnh viện","image":"https://lh5.googleusercontent.com/p/AF1QipOxqa9CFsXEp3HbMcXS1RATpB1Ryq-dzHTLQKTV=w408-h544-k-no", "address":"9948+855, Phường 1, Thành phố Mỹ Tho, Tiền Giang, Việt Nam","state":"Tiền Giang","latitude":10.385535404534412, "longitude": 106.44560234035627},
{"name":"Bệnh viện đa khoa Anh Đức","type":"Bệnh viện","image":"https://lh5.googleusercontent.com/p/AF1QipODume4FPi-PfbnWjnlfKLwMwoZiriH2_4mXAbe=w408-h268-k-no", "address":"9948+855, Phường 1, Thành phố Mỹ Tho, Tiền Giang, Việt Nam","state":"Tiền Giang","latitude":10.386886193995725, "longitude": 106.41676323138891},
{"name":"Bệnh viện mắt Tiền Giang","type":"Bệnh viện","image":"https://lh5.googleusercontent.com/p/AF1QipMTwVwZIFmpJvRjgR577bO7wb_ymKQzyeVpKZWE=w426-h240-k-no", "address":"44 Đường Phan Hiển Đạo, Phường 7, Thành phố Mỹ Tho, Tiền Giang, Việt Nam","state":"Tiền Giang","latitude":10.388236977619776, "longitude": 106.46208183119478},
{"name":"Bệnh viện Quân y 120","type":"Bệnh viện","image":"https://lh5.googleusercontent.com/p/AF1QipMLfBvnDIhPqP5o3mjwN6p0_Hn1hW6oSZu_fauk=w408-h306-k-no", "address":"518 Nguyễn Thị Thập, Phường 6, Thành phố Mỹ Tho, Tiền Giang, Việt Nam","state":"Tiền Giang","latitude":10.376079714923385, "longitude": 106.34260552261566},
{"name":"Bệnh viện Đa khoa Khu vực Cai Lậy","type":"Bệnh viện","image":"https://lh5.googleusercontent.com/p/AF1QipOHd55FhqFRS6CZI1HJRV6kznmepZTqGoFbYcg9=w408-h255-k-no", "address":"QL1A, Khu phố 1, Cai Lậy, Tiền Giang, Việt Nam","state":"Tiền Giang","latitude":10.428757768423916, "longitude": 106.12562555990874},
{"name":"Bệnh viện tâm thần Tiền Giang","type":"Bệnh viện","image":"https://lh5.googleusercontent.com/p/AF1QipPCBTKwdvNY3_IT-NHwUzO759T853QFQktbSM5O=w408-h306-k-no", "address":"Nhị Bình, Châu Thành, Tiền Giang, Việt Nam","state":"Tiền Giang","latitude":10.477375754308108, "longitude": 106.23823541397181},
{"name":"Bệnh Viện Lao Và Bệnh Phổi Tiền Giang","type":"Bệnh viện","image":"https://maps.gstatic.com/tactile/pane/default_geocode-1x.png", "address":"504 QL1A, TT. Tân Hiệp, Châu Thành, Tiền Giang, Việt Nam","state":"Tiền Giang","latitude":10.48547801125493, "longitude": 106.37556450429265},
{"name":"Bệnh Viện Lao - Bệnh Phổi Tiền Giang","type":"Bệnh viện","image":"https://lh5.googleusercontent.com/p/AF1QipNUrPGH4stuP-ZfiQKTx0uCsECulebvYkR-LrHY=w408-h306-k-no", "address":"QL1A, Tam Hiệp, Châu Thành, Tiền Giang, Việt Nam","state":"Tiền Giang","latitude":10.455768700303658, "longitude": 106.29728692280979},
{"name":"Bệnh Viện Đa Khoa Gò Công Đông","type":"Bệnh viện","image":"https://lh5.googleusercontent.com/p/AF1QipNPyZ9CKpgys2T7RKOoRroq2I0QplSsStOA7Kq9=w408-h304-k-no", "address":"9PX9+6FP, ấp 1, Gò Công Đông, Tiền Giang, Việt Nam","state":"Tiền Giang","latitude":10.419303388224606, "longitude":  106.76283253899743},
{"name":"Bệnh viện Đa khoa Khu vực Gò Công","type":"Bệnh viện","image":"https://lh5.googleusercontent.com/p/AF1QipPJPsOvcYdrEb4OSu1BKeMiR-02KIySBb3dxssX=w408-h306-k-no", "address":"khu phố 4 ĐT862, Phường 5, Gò Công, Tiền Giang, Việt Nam","state":"Tiền Giang","latitude":10.382833808102989, "longitude":  106.54173270358088},
{"name":"Trung tâm Y tế TP. Mỹ Tho","type":"Bệnh viện","image":"https://lh5.googleusercontent.com/p/AF1QipOQwX6d22kyA6B_aopGMCsVSI8InBPR5hlFuPPJ=w408-h306-k-no", "address":"57 Đường Hùng Vương, Phường 7, Thành phố Mỹ Tho, Tiền Giang, Việt Nam","state":"Tiền Giang","latitude":10.39499080815597, "longitude":  106.46894828571082},
{"name":"Khu điều trị theo yêu cầu","type":"Bệnh viện","image":"https://lh5.googleusercontent.com/p/AF1QipPRvO7CkiudLovbgTSGod6pd1u6pgWBpnOl0x8h=w408-h306-k-no", "address":"Thủ Khoa Huân, Phường 1, Thành phố Mỹ Tho, Tiền Giang, Việt Nam","state":"Tiền Giang","latitude":10.384184609236595, "longitude":  106.38792412242154},
{"name":"BỆNH VIỆN ĐA KHOA TÂM MINH ĐỨC TIỀN GIANG","type":"Bệnh viện","image":"https://lh5.googleusercontent.com/p/AF1QipMw-MOZsSJ2Au2A2GLC9ow0axmclJpZ-zFl6Mnw=w408-h544-k-no", "address":"99 Nguyễn Thị Thập, Phường 10, Thành phố Mỹ Tho, Tiền Giang, Việt Nam","state":"Tiền Giang","latitude":10.455768700303658, "longitude":   106.35496514074454},
{"name":"Bệnh viện Y học cổ truyền Tiền Giang","type":"Bệnh viện","image":"https://lh5.googleusercontent.com/p/AF1QipPosUHXc1AyCIHDJZimGDyf_tWlq3PrMd1etBuV=w408-h306-k-no", "address":"3 Thủ Khoa Huân, Phường 1, Thành phố Mỹ Tho, Tiền Giang, Việt Nam","state":"Tiền Giang","latitude":10.382833808102989, "longitude":   106.42500297680814},
{"name":"Bệnh Viện Y Học Dân Tộc Tiền Giang","type":"Bệnh viện","image":"https://maps.gstatic.com/tactile/pane/default_geocode-1x.png", "address":"44A Giồng Dứa, Phường 7, Thành phố Mỹ Tho, Tiền Giang, Việt Nam","state":"Tiền Giang","latitude":10.389587755405856, "longitude":   106.39204399513116},
{"name":"Chi cục Hải quan Cửa khẩu Cảng Mỹ Tho","type":"Hải quan","image":"https://maps.gstatic.com/tactile/pane/default_geocode-1x.png", "address":"Ấp Bình Tạo, Trung An, Châu Thành, Tiền Giang, Việt Nam","state":"Tiền Giang","latitude":10.344680709291326, "longitude":   106.32404035990035},
{"name":"Cảng Vụ Hàng Hải Mỹ Tho","type":"Hải quan","image":"https://lh5.googleusercontent.com/p/AF1QipPokhhSlUQo3V4dC7X6u1JZpfW1CIqu37gdtcdV=w426-h240-k-no", "address":"8 Lê Thị Hồng Gấm, Bình Đức, Châu Thành, Tiền Giang, Việt Nam","state":"Tiền Giang","latitude":10.347342095839924, "longitude":   106.32920253059824},
{"name":"Hải quan Trà Vinh","type":"Hải quan","image":"https://maps.gstatic.com/tactile/pane/default_geocode-1x.png", "address":"Vũ Đình Liệu, Long Đức, Trà Vinh, Việt Nam","state":"Trà Vinh","latitude":10.024842497635944, "longitude": 106.36935590660103},
{"name":"Đại diện Cảng vụ Hàng hải Cần Thơ tại Duyên Hải","type":"Hải quan","image":"https://maps.gstatic.com/tactile/pane/default_geocode-1x.png", "address":"Unnamed Road, Dân Thành, Duyên Hải, Trà Vinh, Việt Nam","state":"Trà Vinh","latitude":9.640940520239436, "longitude": 106.37569330020035},

{"name":"Công Ty Vận Tải Trà Vinh","type":"Vận tải","image":"https://maps.gstatic.com/tactile/pane/default_geocode-1x.png", "address":"43 Điện Biên Phủ, Phường 3, Trà Vinh, Việt Nam","state":"Trà Vinh","latitude":10.00351498044882, "longitude": 106.31298458832956},
{"name":"Sở Giao Thông Vận Tải Trà Vinh","type":"Vận tải","image":"https://maps.gstatic.com/tactile/pane/default_geocode-1x.png", "address":"151 Nguyễn Đáng,Phường 7,khóm 1, Trà Vinh, Phường 9, Trà Vinh, Việt Nam","state":"Trà Vinh","latitude":10.000810143226444, "longitude": 106.32946407916805},
{"name":"Công Ty Cổ Phần Vận Tải Sài Gòn","type":"Vận tải","image":"https://maps.gstatic.com/tactile/pane/default_geocode-1x.png", "address":"194 Đ. Nguyễn Đáng, Phường 7, Trà Vinh, Việt Nam","state":"Trà Vinh","latitude":9.999457716170857, "longitude": 106.34457027910332},
{"name":"Htx Vận Tải Trà Vinh","type":"Vận tải","image":"https://maps.gstatic.com/tactile/pane/default_geocode-1x.png", "address":"Số 01 Đ. Nguyễn Đáng, Hoà Lợi, Châu Thành, Trà Vinh, Việt Nam","state":"Trà Vinh","latitude":9.942445966944058, "longitude": 106.46115961287178},
{"name":"Nhất Tín Logistics - Chi nhánh Trà Vinh","type":"Vận tải","image":"https://maps.gstatic.com/tactile/pane/default_geocode-1x.png", "address":"108 Võ Nguyên Giáp, KP7, Tp. Trà Vinh, Trà Vinh, Việt Nam","state":"Trà Vinh","latitude":9.943068004851643, "longitude": 106.21364395939108},
{"name":"Tra Vinh Transport J.S.C.","type":"Vận tải","image":"https://maps.gstatic.com/tactile/pane/default_geocode-1x.png", "address":"43 Điện Biên Phủ, Phường 3, Trà Vinh, Việt Nam","state":"Trà Vinh","latitude":9.95524175314375, "longitude": 106.38255874048573},

{"name":"CTCP vận tải Sài Gòn","type":"Vận tải","image":"https://maps.gstatic.com/tactile/pane/default_geocode-1x.png", "address":"151 Nguyễn Thị Thập, Phường 10, Thành phố Mỹ Tho, Tiền Giang, Việt Nam","state":"Tiền Giang","latitude":10.430708108610029, "longitude": 106.32777296803492},
{"name":"Sở giao thông vận tải Tiền Giang","type":"Vận tải","image":"https://maps.gstatic.com/tactile/pane/default_geocode-1x.png", "address":"19A Nam Kỳ Khởi Nghĩa, Phường 4, Thành phố Mỹ Tho, Tiền Giang, Việt Nam","state":"Tiền Giang","latitude":10.428006903335229, "longitude": 106.35798536790553},
{"name":"Vận tải Thành Đạt","type":"Vận tải","image":"https://maps.gstatic.com/tactile/pane/default_geocode-1x.png", "address":"965H+C3Q, Vĩnh Kim, Châu Thành, Tiền Giang, Việt Nam","state":"Tiền Giang","latitude":10.346959871275072, "longitude": 106.2096699556426},
{"name":"Công ty cổ phần vận tải ô tô Tiền Giang","type":"Vận tải","image":"https://lh5.googleusercontent.com/p/AF1QipOVbWoUHpeH19zXcQpnCnPiELja34asAN23-cet=w408-h306-k-no", "address":"152 Lý Thường Kiệt, Phường 5, Thành phố Mỹ Tho, Tiền Giang 860000, Việt Nam","state":"Tiền Giang","latitude":10.436110447275425, "longitude": 106.36073195499552},
{"name":"Hợp Tác Xã Vận Tải Hợp Nhất Tiền Giang","type":"Vận tải","image":"https://maps.gstatic.com/tactile/pane/default_geocode-1x.png", "address":"213 Nguyễn Thị Thập, Phường 5, Thành phố Mỹ Tho, Tiền Giang, Việt Nam","state":"Tiền Giang","latitude":10.423955049930768, "longitude": 106.28520095531906},

{"name":"Kiểm toán nhà nước khu vực IX","type":"Tư vấn - Kiểm toán","image":"https://lh5.googleusercontent.com/p/AF1QipN4DsnR5DDoYE-em0OVnBCjBFkIdqebuD0ehfND=w426-h240-k-no", "address":"369 Đường Hùng Vương, Mỹ Phong, Thành phố Mỹ Tho, Tiền Giang, Việt Nam","state":"Tiền Giang","latitude":10.406155905797103, "longitude": 106.37171522284143},
{"name":"Chi Cục Thuế Tỉnh Tiền Giang","type":"Tư vấn - Kiểm toán","image":"https://maps.gstatic.com/tactile/pane/default_geocode-1x.png", "address":"9968+XM6, Phường 7, Thành phố Mỹ Tho, Tiền Giang, Việt Nam","state":"Tiền Giang","latitude":10.443973300343337, "longitude": 106.37995496826069},
{"name":"Thanh tra tỉnh Tiền Giang","type":"Tư vấn - Kiểm toán","image":"https://lh5.googleusercontent.com/p/AF1QipMJX7fzn1dAYfh6LvWuHJc9t9QpdwezOxkT7o-q=w426-h240-k-no", "address":"6 Lê Lợi, Phường 1, Thành phố Mỹ Tho, Tiền Giang, Việt Nam","state":"Tiền Giang","latitude":10.441272210252606, "longitude": 106.395061168196},
{"name":"Sở Tài chính","type":"Tư vấn - Kiểm toán","image":"https://lh5.googleusercontent.com/p/AF1QipPFG-JCtYS-A9qU7ziH95wLVyl05Uo-n7Eb2pCS=w408-h306-k-no", "address":"38 Đường Hùng Vương, Phường 7, Thành phố Mỹ Tho, Tiền Giang, Việt Nam","state":"Tiền Giang","latitude":10.386598415332438, "longitude":  106.45254573345487},
{"name":"Sở Tài chính","type":"Tư vấn - Kiểm toán","image":"https://lh5.googleusercontent.com/p/AF1QipPFG-JCtYS-A9qU7ziH95wLVyl05Uo-n7Eb2pCS=w408-h306-k-no", "address":"38 Đường Hùng Vương, Phường 7, Thành phố Mỹ Tho, Tiền Giang, Việt Nam","state":"Tiền Giang","latitude":10.386598415332438, "longitude":  106.45254573345487},

{"name":"CÔNG TY TNHH KẾ TOÁN VÀ TƯ VẤN THUẾ CHIẾN THUẬT","type":"Tư vấn - Kiểm toán","image":"https://lh5.googleusercontent.com/p/AF1QipOHD30YwiNq0nqdVCYeLhR2bcra3AjHHs5zLvbQ=w408-h306-k-no", "address":"Số 57A, Trà Vinh, Việt Nam","state":"Trà Vinh","latitude":9.955273272370963, "longitude":  106.35599194329589},
{"name":"Văn Phòng Kế Toán","type":"Tư vấn - Kiểm toán","image":"https://maps.gstatic.com/tactile/pane/default_geocode-1x.png", "address":"Hẻm 305 Phan Đình Phùng, Phường 6, Trà Vinh, Việt Nam","state":"Trà Vinh","latitude":9.933968917308173, "longitude":  106.31685315255446},
{"name":"Toà án Nhân dân tỉnh Trà Vinh","type":"Tư vấn - Kiểm toán","image":"https://lh5.googleusercontent.com/p/AF1QipMpzpbcTvTWwg2Bahzil4G4-6KbkKk78l90grSX=w408-h306-k-no", "address":"196 Phạm Hồng Thái, Phường 2, Trà Vinh, Việt Nam","state":"Trà Vinh","latitude":9.942085025851465, "longitude":  106.31513653892544},
{"name":"Chi Cục Thuế Thành Phố Trà Vinh","type":"Tư vấn - Kiểm toán","image":"https://lh5.googleusercontent.com/p/AF1QipP0k7xNKZLtpg56XyUYsKwhfYmb29lfzkG5Nr8c=w408-h725-k-no", "address":"67 Lý Thường Kiệt, Phường 4, Trà Vinh, Việt Nam","state":"Trà Vinh","latitude":9.942423192668695, "longitude":  106.36835156142477},


{"name":"Ngân Hàng Agribank - Chi Nhánh Số 2 Trà Vinh","type":"Ngân hàng","image":"https://lh5.googleusercontent.com/p/AF1QipOpEcoQXCoL7tedUDnNeLGuHVRrM6lTS0ujISzg=w408-h884-k-no", "address":"24 Đường Trần Phú, Phường 3, Trà Vinh, Việt Nam","state":"Trà Vinh","latitude":9.934512271907716, "longitude":  106.34865614325564},
{"name":"Ngân hàng Công thương Việt Nam - Chi nhánh Trà Vinh","type":"Ngân hàng","image":"https://maps.gstatic.com/tactile/pane/default_geocode-1x.png", "address":"15,, Điện Biên Phủ, P. 3, TP. Trà Vinh, Tỉnh Trà Vinh, Điện Biên Phủ, Phường 3, Trà Vinh, Việt Nam","state":"Trà Vinh","latitude":9.937048573251852, "longitude":  106.34771200575969},
{"name":"Ngân Hàng Công Thương Việt Nam - Vietinbank PGD Nguyễn Đáng","type":"Ngân hàng","image":"https://maps.gstatic.com/tactile/pane/default_geocode-1x.png", "address":"5 Đ. Nguyễn Đáng, Phường 9, Trà Vinh, Việt Nam","state":"Trà Vinh","latitude":9.925043239845678, "longitude":  106.33028837742523},
{"name":"SACOMBANK Trà Vinh","type":"Ngân hàng","image":"https://lh5.googleusercontent.com/p/AF1QipMolajGGT89MKGRfoOV_RTD2zk_a2Nl8tODVuJl=w408-h305-k-no", "address":"555 Đ. Nguyễn Đáng, khóm 3, Trà Vinh, Việt Nam","state":"Trà Vinh","latitude":9.927579614580464, "longitude":  106.33732649330418},
{"name":"VietinBank Trà Vinh","type":"Ngân hàng","image":"https://lh5.googleusercontent.com/p/AF1QipNA5HJ_XLCOjZK9VEDce1LjAMbvu-GcX0CdFb7a=w408-h544-k-no", "address":"38A Nguyễn Thị Minh Khai, Khóm 1, Trà Vinh, Việt Nam","state":"Trà Vinh","latitude":9.93966939731005, "longitude":  106.3339790967276},
{"name":"PGD Phạm Thái Bường - CN Trà Vinh - Ngân hàng TMCP Đầu tư & Phát triển Việt Nam (BIDV)","type":"Ngân hàng","image":"https://lh5.googleusercontent.com/p/AF1QipOwzcq5JCMKJT9ckg1ulMF5iNt2H1Mk9mHmT5VE=w408-h725-k-no", "address":"Số 24-26 Phạm Thái Bường, K2, 2, Trà Vinh, Phường 3, Trà Vinh, 940000, Việt Nam","state":"Trà Vinh","latitude":9.937809459819729, "longitude":  106.34702536030808},
{"name":"Ngân Hàng Thương Mại Cổ Phần Sài Gòn Thương Tín- Chi Nhánh Trà Vinh","type":"Ngân hàng","image":"https://maps.gstatic.com/tactile/pane/default_geocode-1x.png", "address":"Số 555 Đ. Nguyễn Đáng, Phường 6, Trà Vinh, Việt Nam","state":"Trà Vinh","latitude":9.928865839474136, "longitude":  106.33829736208244},
{"name":"Ngân hàng TMCP Á Châu - CN Trà Vinh","type":"Ngân hàng","image":"https://maps.gstatic.com/tactile/pane/default_geocode-1x.png", "address":"37 – 39 Phạm Thái Bường, Phường 6, Trà Vinh, Việt Nam","state":"Trà Vinh","latitude":9.929711290030056, "longitude":  106.3411297745703},
{"name":"Ngân Hàng Tmcp Ngoại Thương Việt Nam- Chi Nhánh Trà Vinh","type":"Ngân hàng","image":"https://maps.gstatic.com/tactile/pane/default_geocode-1x.png", "address":"Số 28 Nguyễn Thị Minh Khai, Phường 2, Trà Vinh, Việt Nam","state":"Trà Vinh","latitude":9.93776274675569, "longitude":  106.32984177359096},
{"name":"Ngân hàng Nông nghiệp và phát triển nông thôn - Chi nhánh Trà Vinh","type":"Ngân hàng","image":"https://maps.gstatic.com/tactile/pane/default_geocode-1x.png", "address":"138 Trần Quốc Tuấn, Phường 2, Trà Vinh, Việt Nam","state":"Trà Vinh","latitude":9.938861802162968, "longitude": 106.33361832357477},
{"name":"CN Trà Vinh - Ngân hàng TMCP Đầu tư & Phát triển Việt Nam (BIDV)","type":"Ngân hàng","image":"https://lh5.googleusercontent.com/p/AF1QipPFjfnRqnR_26Zt8tVxDOw27OM-c-2g016lQ1m0=w408-h544-k-no", "address":"Số 2B Đ. Lê Thánh Tôn, khóm 3, P.2, TP Trà Vinh, Tỉnh Trà Vinh, 2, Trà Vinh, Phường 1, Trà Vinh, 940000, Việt Nam","state":"Trà Vinh","latitude":9.941228985877299, "longitude": 106.33799568832875},
{"name":"Ngân Hàng BIDV","type":"Ngân hàng","image":"https://lh5.googleusercontent.com/p/AF1QipM7fv5D-QT06ovFX-YPY9byrAWSaLc4GWJswJvK=w408-h306-k-no", "address":"57 Phạm Hồng Thái, Phường 3, Trà Vinh, Việt Nam","state":"Trà Vinh","latitude":9.93641005810677, "longitude": 106.34726540192541},
{"name":"Ngân Hàng Phát Triến Việt Nam - Vdb","type":"Ngân hàng","image":"https://lh5.googleusercontent.com/p/AF1QipM8jJ_E866ji-rhRQeQ6QnLKEVXk23APIrTkYc=w426-h240-k-no", "address":"7 Trưng Nữ Vương, Phường 1, Trà Vinh, Việt Nam","state":"Trà Vinh","latitude":9.941144443896926, "longitude": 106.33207337130865},
{"name":"Vietcombank Trà Vinh","type":"Ngân hàng","image":"https://lh5.googleusercontent.com/p/AF1QipO5pT6eCvpGpc1vY9oLZJVLkBNy_dKT_RxHZKus=w408-h544-k-no", "address":"Phường 3, Trà Vinh, Việt Nam","state":"Trà Vinh","latitude":9.940045396162555, "longitude": 106.34228722240127},
{"name":"Ngân hàng Đông Á - CN Trà Vinh","type":"Ngân hàng","image":"https://lh5.googleusercontent.com/p/AF1QipN1s93fuHXpRZmtjyuell22HUsJXx6P3QqGrcl7=w408-h544-k-no", "address":"27 Đ. Nguyễn Đáng, Phường 6, Trà Vinh, Việt Nam","state":"Trà Vinh","latitude":9.927840993229596, "longitude": 106.33486745539736},


{"name":"Vietinbank Tiền Giang","type":"Ngân hàng","image":"https://lh5.googleusercontent.com/p/AF1QipOOaCRhdIRgg4rIJfQ7khNQqcJxPRUJJWKYpcL1=w408-h306-k-no", "address":"15 Nam Kỳ Khởi Nghĩa, Phường 4, Thành phố Mỹ Tho, Tiền Giang, Việt Nam","state":"Tiền Giang","latitude":10.485904897480621, "longitude": 106.3540517967662},
{"name":"BIDV Tiền Giang","type":"Ngân hàng","image":"https://lh5.googleusercontent.com/p/AF1QipPLsD1tDEw4ARk2Ojfelcy5N8M0ENRVPoUkgUg-=w426-h240-k-no", "address":"Số 208A Nam Kỳ Khởi Nghĩa, Phường 4, Thành phố Mỹ Tho, Tiền Giang, Việt Nam","state":"Tiền Giang","latitude":10.485904897480621, "longitude": 106.29912016063787},
{"name":"Ngân Hàng Phát Triển Việt Nam (Vdb) - Cn Tiền Giang","type":"Ngân hàng","image":"https://lh5.googleusercontent.com/p/AF1QipM1uikPtCElhSPW9J9CL9wO9TSOpz366jyrLUEh=w426-h240-k-no", "address":"19 Nam Kỳ Khởi Nghĩa, Phường 4, Thành phố Mỹ Tho, Tiền Giang, Việt Nam","state":"Tiền Giang","latitude":10.499408169135585, "longitude": 106.31010648786355},
{"name":"PVcomBank Tiền Giang","type":"Ngân hàng","image":"https://lh5.googleusercontent.com/p/AF1QipMtVD-9O5aP98oQg4X9_f_jkwTKKanzWds4L9GN=w408-h839-k-no", "address":"25-25A Đường Hùng Vương, Phường 7, Thành phố Mỹ Tho, Tiền Giang 84106, Việt Nam","state":"Tiền Giang","latitude":10.47780265170219, "longitude": 106.37053128760472},
{"name":"Ngân Hàng Tmcp Công Thương Việt Nam (Vietinbank) - Cn Tiền Giang","type":"Ngân hàng","image":"https://maps.gstatic.com/tactile/pane/default_geocode-1x.png", "address":"1044 Trần Hưng Đạo, Phường 5, Thành phố Mỹ Tho, Tiền Giang, Việt Nam","state":"Tiền Giang","latitude":10.47780265170219, "longitude": 106.30461332425071},
{"name":"BIDV - PGD Khu công nghiệp Mỹ Tho","type":"Ngân hàng","image":"https://lh5.googleusercontent.com/p/AF1QipPcO5aJEyBoWv7ELDzrVnch-q4xAlfBXGzDdl0O=w408-h306-k-no", "address":"Lô 33, tỉnh lộ 864, Trung An, Mỹ Tho, Tiền Giang, 860000, Việt Nam","state":"Tiền Giang","latitude":10.494006931204718, "longitude":  106.35679837857262},
{"name":"AGRIBANK - PGD Ấp Bắc","type":"Ngân hàng","image":"https://lh5.googleusercontent.com/p/AF1QipNy6PC0fM6Cnc-yfu4FyjTxT5rlvj8OfczfCwKM=w408-h306-k-no", "address":"21 Ấp Bắc, Phường 4, Thành phố Mỹ Tho, Tiền Giang, Việt Nam","state":"Tiền Giang","latitude":10.537214189913472, "longitude":  106.41722317831379},
{"name":"CN Mỹ Tho - Ngân hàng TMCP Đầu tư & Phát triển Việt Nam (BIDV)","type":"Ngân hàng","image":"https://lh5.googleusercontent.com/p/AF1QipMnfY53qrn5ctHRH7YUSb2xTa3idAFtR4MJWkiI=w408-h306-k-no", "address":"Số 34-36 Lê Lợi, 7, Mỹ Tho, Tiền Giang, 860000, Việt Nam","state":"Tiền Giang","latitude":10.526412942429246, "longitude":  106.38701077844321},
{"name":"Ngân Hàng TMCP Nam Việt","type":"Ngân hàng","image":"https://maps.gstatic.com/tactile/pane/default_geocode-1x.png", "address":"12B6-12B7, Nguyễn Trãi, Thành phố Mỹ Tho, Tiền Giang, Việt Nam","state":"Tiền Giang","latitude":10.438638812754844, "longitude":   106.34855863315336},
{"name":"Ngân hàng Quân Đội - CN Tiền Giang","type":"Ngân hàng","image":"https://maps.gstatic.com/tactile/pane/default_geocode-1x.png", "address":"108 Nam Kỳ Khởi Nghĩa, Phường 4, Thành phố Mỹ Tho, Tiền Giang, Việt Nam","state":"Tiền Giang","latitude":10.42378227223457, "longitude":    106.33894559683092},
{"name":"SACOMBANK Tiền Giang","type":"Ngân hàng","image":"https://maps.gstatic.com/tactile/pane/default_geocode-1x.png", "address":"6 Đinh Bộ Lĩnh, Phường 2, Thành phố Mỹ Tho, Tiền Giang, Việt Nam","state":"Tiền Giang","latitude":10.419730365417466, "longitude": 106.3691579967015},
{"name":"Vietcombank Tiền Giang - PGD Mỹ Tho","type":"Ngân hàng","image":"https://maps.gstatic.com/tactile/pane/default_geocode-1x.png", "address":"204-204B Nam Kỳ Khởi Nghĩa, Phường 7, Thành phố Mỹ Tho, Tiền Giang, Việt Nam","state":"Tiền Giang","latitude":10.429184732655166, "longitude": 106.30735990605713},
{"name":"MSB Tiền Giang","type":"Ngân hàng","image":"https://lh5.googleusercontent.com/p/AF1QipOlfOmpBocy5VUMmCUuhBbYG1VQLre47yWPuVNL=w408-h544-k-no", "address":"71A Nam Kỳ Khởi Nghĩa, Phường 4, Thành phố Mỹ Tho, Tiền Giang 860000, Việt Nam","state":"Tiền Giang","latitude":10.396344825262707, "longitude":  106.34276083872709},
{"name":"SAIGONBANK Tiền Giang","type":"Ngân hàng","image":"https://maps.gstatic.com/tactile/pane/default_geocode-1x.png", "address":"745 Nam Kỳ Khởi Nghĩa, Phường 4, Thành phố Mỹ Tho, Tiền Giang, Việt Nam","state":"Tiền Giang","latitude":10.379410581665079, "longitude":  106.35266835112954},
{"name":"PGD Gò Công - CN Tiền Giang - Ngân hàng TMCP Đầu tư & Phát triển Việt Nam (BIDV)","type":"Ngân hàng","image":"https://lh5.googleusercontent.com/p/AF1QipO5UTHboKPYCTIHMjq6i8Cl4rxiNhITwnnlhgCH=w426-h240-k-no", "address":"Số 10A Trần Hưng Đạo, Phường 2, Thị xã Gò Công, Tiền Giang, 2, Gò Công, Tiền Giang, 860000, Việt Nam","state":"Tiền Giang","latitude":10.367763601787358, "longitude":  106.6906710205875},
{"name":"BIDV - PGD Lê Lợi","type":"Ngân hàng","image":"https://lh5.googleusercontent.com/p/AF1QipO5UTHboKPYCTIHMjq6i8Cl4rxiNhITwnnlhgCH=w426-h240-k-no", "address":"Số 54 Đường Lê Lợi, 1, Mỹ Tho, Tiền Giang, 860000, Việt Nam","state":"Tiền Giang","latitude":10.36622841458739, "longitude": 106.38519219873426},
{"name":"Ngân Hàng Ngoại Thương Vn - Vietcombank","type":"Ngân hàng","image":"https://maps.gstatic.com/tactile/pane/default_geocode-1x.png", "address":"152 Đinh Bộ Lĩnh, Phường 3, Thành phố Mỹ Tho, Tiền Giang, Việt Nam","state":"Tiền Giang","latitude":10.358378657199696, "longitude": 106.37878045793543},
{"name":"Vietinbank - PGD Ấp Bắc","type":"Ngân hàng","image":"https://maps.gstatic.com/tactile/pane/default_geocode-1x.png", "address":"12 Nguyễn Trãi, Phường 7, Thành phố Mỹ Tho, Tiền Giang, Việt Nam","state":"Tiền Giang","latitude":10.367431474130706, "longitude":  106.3675303364703},
{"name":"Ngân Hàng Tmcp Công Thương Việt Nam (Vietinbank) - Pgd Long Định","type":"Ngân hàng","image":"https://maps.gstatic.com/tactile/pane/default_geocode-1x.png", "address":"155 QL1A, Nhị Bình, Châu Thành, Tiền Giang, Việt Nam","state":"Tiền Giang","latitude":10.403889321272102, "longitude": 106.2541482947802},
{"name":"SeABank Tiền Giang","type":"Ngân hàng","image":"https://maps.gstatic.com/tactile/pane/default_geocode-1x.png", "address":"59 Đinh Bộ Lĩnh, Phường 3, Thành phố Mỹ Tho, Tiền Giang, Việt Nam","state":"Tiền Giang","latitude":10.359178081226442, "longitude": 106.37988620391552},



{"name":"The World Hotel","type":"Khách sạn","image":"https://lh5.googleusercontent.com/p/AF1QipO_93XJSNt-fzjaHHlKZh_D32O0IoNNtJYxfrFS=w493-h240-k-no", "address":"306c Lý Thường Kiệt, Phường 5, Thành phố Mỹ Tho, Tiền Giang, Việt Nam","state":"Tiền Giang","latitude":10.363498969399336, "longitude": 106.35203565634308},
{"name":"Sông Tiền Hotel","type":"Khách sạn","image":"https://lh5.googleusercontent.com/p/AF1QipOByUx7mEGn2LBLDihBcmrEuHwowv7MCrOrIfoz=w408-h272-k-no", "address":"101 Trưng Trắc, Phường 1, Thành phố Mỹ Tho, Tiền Giang, Việt Nam","state":"Tiền Giang","latitude":10.356771741168497, "longitude": 106.36785657718838},
{"name":"MEKONG MỸ THO HOTEL","type":"Khách sạn","image":"https://lh5.googleusercontent.com/p/AF1QipNtBYN3WLKwuZjpID6jG3nqqvpQezMyOtzkdNR6=w426-h240-k-no", "address":"Số 1A, đường P.4,, Tết Mậu Thân, Phường 4, Thành phố Mỹ Tho, Tiền Giang, Việt Nam","state":"Tiền Giang","latitude":10.36199288607267, "longitude": 106.35989508153719},
{"name":"Cửu Long Hotel","type":"Khách sạn","image":"https://lh5.googleusercontent.com/p/AF1QipOvT6bwZQsbbdma3wQ19Kw3lLNFyM_uo6FiG2EE=w408-h612-k-no", "address":"81/83 Đường 30-4, Phường 1, Châu Thành, Tiền Giang 84000, Việt Nam","state":"Tiền Giang","latitude":10.360386389212088, "longitude": 106.36642759078946},
{"name":"Sông Tiền Hotel","type":"Khách sạn","image":"https://lh5.googleusercontent.com/p/AF1QipOByUx7mEGn2LBLDihBcmrEuHwowv7MCrOrIfoz=w408-h272-k-no", "address":"101 Trưng Trắc, Phường 1, Thành phố Mỹ Tho, Tiền Giang, Việt Nam","state":"Tiền Giang","latitude":10.36139045071506, "longitude": 106.36510067484758},
{"name":"Khách sạn Thư Khôi","type":"Khách sạn","image":"https://lh5.googleusercontent.com/p/AF1QipPFtuBbW6M-cJzuDM7lJhlugij1rXXK0Osmhl_Y=w493-h240-k-no", "address":"222 Đường Hùng Vương, Mỹ Phong, Thành phố Mỹ Tho, Tiền Giang, Việt Nam","state":"Tiền Giang","latitude":10.376250184657048, "longitude": 106.36836692947371},
{"name":"Rạng Đông Hotel - Mỹ Tho","type":"Khách sạn","image":"https://lh5.googleusercontent.com/p/AF1QipPT4-sL_ZFZIsUCvaSFBWA_wZbn0BoG1nWKpthX=w493-h240-k-no", "address":"40 Lê Thị Hồng Gấm, Phường 6, Thành phố Mỹ Tho, Tiền Giang, Việt Nam","state":"Tiền Giang","latitude":10.346730833320402, "longitude": 106.3526480788348},
{"name":"Khách sạn Minh Tài","type":"Khách sạn","image":"https://lh5.googleusercontent.com/p/AF1QipPKZugMhliDBth9W4uNHE75WcY3NtoSgrussRRa=w426-h240-k-no", "address":"1 Quarter 2, Nguyen Hue Street, Ward 1, My Tho City ( 1 KP2 NGUYỄN HUỆ, P.1, TP.MỸ THO), Việt Nam","state":"Tiền Giang","latitude":10.359081104236443, "longitude": 106.37306217024809},
{"name":"Khách sạn Tiến Minh Quân","type":"Khách sạn","image":"https://lh5.googleusercontent.com/p/AF1QipPahcNTiIpR1PISPyXilIf4h9UpFRjj4QZCYXh2=w408-h306-k-no", "address":"Đường Hùng Vương, Mỹ Phong, Thành phố Mỹ Tho, Tiền Giang, Việt Nam","state":"Tiền Giang","latitude":10.372535317074549, "longitude": 106.35969094037237},
{"name":"Khách Sạn Trà Giang","type":"Khách sạn","image":"https://lh5.googleusercontent.com/p/AF1QipP6eVgoLlNMSSAa-P5Yoqwu32zpEbCeqdcDXNNd=w427-h240-k-no", "address":"272 Lý Thường Kiệt, Phường 5, Thành phố Mỹ Tho, Tiền Giang, Việt Nam","state":"Tiền Giang","latitude":10.368318387175199, "longitude": 106.34417623089828},
{"name":"HOTEL SEN VÀNG","type":"Khách sạn","image":"https://lh5.googleusercontent.com/p/AF1QipP5ocY3sxHsmYWdRJrxxlj2POjmtJJUkFIkXUy5=w408-h699-k-no", "address":"37/7B Lê Thị Hồng Gấm, Phường 6, Thành phố Mỹ Tho, Tiền Giang 02733, Việt Nam","state":"Tiền Giang","latitude":10.353257459846906, "longitude": 106.33988927170148},
{"name":"L'Amant Cruise","type":"Khách sạn","image":"https://lh3.googleusercontent.com/proxy/4xWWo0SRk1j7uLzHHa4FChxJ2ozahDQbs3K9-fUVlIowI3kYWWFg4tl4R7iJjhE1NUWF8k95K3Gw5wpjMBe3JQ0gW2BJ0dL-Opyn3Mr1ITlv4BDbQ9vralVPS0_DjGT7RAmsScHkgXGy2j_HxoTIEShQw4Rf8w=w408-h251-k-no", "address":"My Tho Tourist Pier, Phường 6, Thành phố Mỹ Tho, Tiền Giang, Việt Nam","state":"Tiền Giang","latitude":10.352956233919317, "longitude": 106.34703420369615},
{"name":"TRUNG LUONG HOTEL 2","type":"Khách sạn","image":"https://lh5.googleusercontent.com/p/AF1QipNpmbER0vu7vtJq5EM8l25xW3Z_z9bLu_V5egC5=w426-h240-k-no", "address":"QL50, Đạo Thành, Thành phố Mỹ Tho, Tiền Giang 861710, Việt Nam","state":"Tiền Giang","latitude":10.393429430699314, "longitude": 106.35199661811004},
{"name":"Khách sạn Lộc Mai Mỹ Tho (Loc Mai My Tho Hotel)","type":"Khách sạn","image":"https://lh5.googleusercontent.com/p/AF1QipMi-nla6QrBQdUyu7yubGfltMMZBA1wiJpbEiRv=w408-h306-k-no", "address":"216 Đường Hùng Vương, Mỹ Phong, Thành phố Mỹ Tho, Tiền Giang 82000, Việt Nam","state":"Tiền Giang","latitude":10.383129728916135, "longitude": 106.36143799354733},
{"name":"Bầu Bí Mini Farmstay - Mekong - Tiền Giang","type":"Khách sạn","image":"https://lh5.googleusercontent.com/proxy/A0OVEq_TyiXCDrV1Ne1basRARhZ9mvzLgn1cOt39iTVZaI_nkI8SULgCx0eRTIn4jv9blH337cjmk7HsUGwZv2otrMIwrvFMwlRAIxZK4q_fOKkCJx-7-QOeLVzR5ZuNvBFEsgI0EwPuzramDHBMCl-WBnEpcw=w408-h272-k-no", "address":"9862+3RQ, Thạnh Phú, Châu Thành, Tiền Giang, Việt Nam","state":"Tiền Giang","latitude":10.36354247564852, "longitude":106.31955262099946},
{"name":"KHÁCH SẠN 224","type":"Khách sạn","image":"https://lh5.googleusercontent.com/p/AF1QipPRZ_o85nu85FkSeBmat2Wa8E7qkgOlcsHTIPrL=w408-h271-k-no", "address":"224 ĐT879B, Mỹ Phong, Thành phố Mỹ Tho, Tiền Giang, Việt Nam","state":"Tiền Giang","latitude":10.38954597624608, "longitude":106.41533966149825},
{"name":"TRUNG LUONG HOTEL 1","type":"Khách sạn","image":"https://lh5.googleusercontent.com/p/AF1QipPqXzAEVaD7eBAvjbCn5Len6-OHbqyMkSvnLjOV=w408-h272-k-no", "address":"Số 68 QL1A, Phường 10, Thành phố Mỹ Tho, Tiền Giang 861710, Việt Nam","state":"Tiền Giang","latitude":10.396806307765846, "longitude":106.3379203868299},
{"name":"Khách Sạn Tấn Lộc 2","type":"Khách sạn","image":"https://lh5.googleusercontent.com/p/AF1QipPorB69TMvLtJMen4WSahcXUgvFEDRgCoRW8fiS=w408-h544-k-no", "address":"29 Ba Mươi Tháng Tư, Phường 1, Thành phố Mỹ Tho, Tiền Giang, Việt Nam","state":"Tiền Giang","latitude":10.361178413941985, "longitude":106.36178131627311},
{"name":"Khách sạn Song Nghi Cát Tường","type":"Khách sạn","image":"https://lh5.googleusercontent.com/p/AF1QipOr2znPW2db-KO6lzcdN9yvdR9JIoQLuhevARKR=w408-h544-k-no", "address":"111 Nam Kỳ Khởi Nghĩa, Phường 4, Thành phố Mỹ Tho, Tiền Giang, Việt Nam","state":"Tiền Giang","latitude":10.362191585428802, "longitude":106.3729393048617},
{"name":"Thach Thao Homestay","type":"Khách sạn","image":"https://lh5.googleusercontent.com/p/AF1QipOJ0yAmTQvUSatxndWHv-wkYqBgjkTJzXwNaKHY=w408-h272-k-no", "address":"521 Tran Thi Dieu. Ap Phuoc Thuan, Phước Thạnh, Châu Thành, Tiền Giang, Việt Nam","state":"Tiền Giang","latitude":10.380765815128903, "longitude":106.30908127786249},
{"name":"Khách sạn Trúc Quỳnh 2","type":"Khách sạn","image":"https://lh5.googleusercontent.com/p/AF1QipPZHtIy9YXFgZ8PAp1qWuE0HkmL6b3j9pFqtkkl=w408-h544-k-no", "address":"199 Đường Hùng Vương, Mỹ Phong, Thành phố Mỹ Tho, Tiền Giang, Việt Nam","state":"Tiền Giang","latitude":10.374349387655888, "longitude":106.35182495722486},


{"name":"Khách Sạn Hoàng Ngọc","type":"Khách sạn","image":"https://maps.gstatic.com/tactile/pane/default_geocode-1x.png", "address":"5 Lê Thánh Tông, Phường 1, Trà Vinh, Việt Nam","state":"Trà Vinh","latitude":9.952560620906777, "longitude":106.33945111032713},
{"name":"Khách sạn Thanh Trà","type":"Khách sạn","image":"https://lh5.googleusercontent.com/p/AF1QipO6k8JITkCkOWi5DU5SQ4rT5XeS-YrrPd1nt_B8=w408-h306-k-no", "address":"1 Phạm Thái Bường, Phường 3, Trà Vinh, Việt Nam","state":"Trà Vinh","latitude":9.938104125676222, "longitude":106.34674671825044},
{"name":"Khách sạn Trà Vinh - CỬU LONG Hotel","type":"Khách sạn","image":"https://lh5.googleusercontent.com/p/AF1QipMEyG_B7D7MsiK_JEDzC_VyVAw3jb5GlNhTCpO2=w408-h544-k-no", "address":"210 Nguyễn Thị Minh Khai, Phường 7, Trà Vinh, Việt Nam","state":"Trà Vinh","latitude":9.933285151859584, "longitude":106.32949475127889},
{"name":"Khách Sạn Gia Hòa 2","type":"Khách sạn","image":"https://maps.gstatic.com/tactile/pane/default_geocode-1x.png", "address":"50 Lê Lợi, Phường 1, Trà Vinh, Việt Nam","state":"Trà Vinh","latitude":9.950700756790988, "longitude": 106.34537342734723},
{"name":"Khách Sạn Lưu Luyến","type":"Khách sạn","image":"https://lh5.googleusercontent.com/p/AF1QipOA8FYMAPZ9d0cqvRSHgLY5tapDpjImli8cle9q=w408-h306-k-no", "address":"552 Võ Nguyên Giáp, Khóm 9, Trà Vinh, Việt Nam","state":"Trà Vinh","latitude":9.917940418082045, "longitude": 106.32480754740938},
{"name":"Khách Sạn Phương Đông","type":"Khách sạn","image":"https://lh5.googleusercontent.com/p/AF1QipMpFStgSEtS7VSfagkmy-ZQfz8beu3sM2h2XddH=w408-h306-k-no", "address":"1 Phan Đình Phùng, khóm 3, Trà Vinh, 940000, Việt Nam","state":"Trà Vinh","latitude":9.937554963211854, "longitude": 106.34042873143338},
{"name":"Khách Sạn Phượng Hoàng","type":"Khách sạn","image":"https://maps.gstatic.com/tactile/pane/default_geocode-1x.png", "address":"1 Lê Thánh Tôn, Phường 1, Trà Vinh, Việt Nam","state":"Trà Vinh","latitude":9.939001804292776, "longitude": 106.33824396785836},
{"name":"Khách Sạn Gia Hòa 2","type":"Khách sạn","image":"https://lh5.googleusercontent.com/p/AF1QipMluibqEl3ncklBG-wfJ7n4F5WsgSkHvkRKrhGI=w408-h306-k-no", "address":"252 Lê Lợi, Phường 3, Trà Vinh, Việt Nam","state":"Trà Vinh","latitude":9.938240920499245, "longitude":106.34086180364261},
{"name":"Khách sạn Thành Phát","type":"Khách sạn","image":"https://maps.gstatic.com/tactile/pane/default_geocode-1x.png", "address":"Nguyễn Thị Minh Khai, khóm 9, P.7,, TP.Trà Vinh, Phường 7, Trà Vinh, Việt Nam","state":"Trà Vinh","latitude":9.916836072432364, "longitude": 106.32023345950508},
{"name":"Khách Sạn Thanh Trang","type":"Khách sạn","image":"https://maps.gstatic.com/tactile/pane/default_geocode-1x.png", "address":"43 QL53, Phường 8, Châu Thành, Trà Vinh, Việt Nam","state":"Trà Vinh","latitude":9.920085397926128, "longitude": 106.3106984641304},
{"name":"Khách Sạn Tuyết Linh","type":"Khách sạn","image":"https://maps.gstatic.com/tactile/pane/default_geocode-1x.png", "address":"113 Nguyễn Thị Minh Khai, Phường 7, Trà Vinh, Việt Nam","state":"Trà Vinh","latitude":9.932567317198071, "longitude": 106.33351025845317},
{"name":"Hotel An Khang","type":"Khách sạn","image":"https://lh5.googleusercontent.com/p/AF1QipNZ7DN4OpQcSFBbfiWcSVCXYQGZ6QSQwBwZNwm6=w427-h240-k-no", "address":"69 Võ Văn Kiệt, Phường 7, Trà Vinh, Việt Nam","state":"Trà Vinh","latitude":9.938654443576697, "longitude": 106.33057055761348},
{"name":"Khách Sạn Thanh Bình 1","type":"Khách sạn","image":"https://lh5.googleusercontent.com/p/AF1QipNrG-B6fMRXvboM73_AnEMtVD-yJwHF-MweHwwv=w408-h306-k-no", "address":"199 Nguyễn Thị Minh Khai, Phường 7, Trà Vinh, Việt Nam","state":"Trà Vinh","latitude":9.926627397219132, "longitude":106.33116874764467},
{"name":"Khách Sạn Hoàn Mỹ","type":"Khách sạn","image":"https://lh5.googleusercontent.com/p/AF1QipPHfRifh4OULb5hoOof3ypsLqlf1gyVr-asJjyF=w427-h240-k-no", "address":"105 Nguyễn Thị Minh Khai, Phường 7, Trà Vinh, Việt Nam","state":"Trà Vinh","latitude":9.931361924582239, "longitude":106.33297119195518},
{"name":"Khách Sạn Bảo Châu","type":"Khách sạn","image":"https://lh5.googleusercontent.com/p/AF1QipOUY5X--mBqn67Q2vCzBhC9_IKnktD_mDwri8NC=w408-h306-k-no", "address":"26/3, Đường Nguyễn Thị Minh Khai, Phường 7, Trà Vinh, Việt Nam","state":"Trà Vinh","latitude":9.916584073393281, "longitude":106.3204073445227},
{"name":"Hotel Ngọc Quý","type":"Khách sạn","image":"https://lh5.googleusercontent.com/p/AF1QipNnZrJpePeIuu77fYsJDAXBf4pSKx_itAf38nWZ=w426-h240-k-no", "address":"37, ql52,, Phường 8, Trà Vinh, Việt Nam","state":"Trà Vinh","latitude":9.915865411756153, "longitude":106.31761784737556},
{"name":"Khách Sạn Duy Tùng","type":"Khách sạn","image":"https://lh5.googleusercontent.com/p/AF1QipMugyZZyvcnMHWDYLqUBwdtBLjCclJVws93v9c7=w408-h544-k-no", "address":"14 Điện Biên Phủ, Phường 3, Trà Vinh, Việt Nam","state":"Trà Vinh","latitude":9.935648394266849, "longitude":106.34202202330027},
{"name":"Khách Sạn PaLace II","type":"Khách sạn","image":"https://maps.gstatic.com/tactile/pane/default_geocode-1x.png", "address":"48 Phạm Ngũ Lão, Phường 2, Trà Vinh, Việt Nam","state":"Trà Vinh","latitude":9.942541656535838, "longitude":106.338719875491},
{"name":"Khách Sạn Hoàng Phúc","type":"Khách sạn","image":"https://maps.gstatic.com/tactile/pane/default_geocode-1x.png", "address":"Số 2A Đ. Nguyễn Đáng, Phường 7, Trà Vinh, Việt Nam","state":"Trà Vinh","latitude":9.926303056126681, "longitude":106.33424196711408},
{"name":"Khách sạn Hoàn Mỹ 2","type":"Khách sạn","image":"https://lh5.googleusercontent.com/p/AF1QipPFrelDsZmfvOHxZ4ih-A02UFuNsEvooYbwDl2V=w408-h306-k-no", "address":"132B Đ. Nguyễn Đáng, Phường 7, Trà Vinh, Việt Nam","state":"Trà Vinh","latitude":9.925658180523106, "longitude":106.33610775250024},

{"name":"Quán Liên","type":"Nhà hàng","image":"https://maps.gstatic.com/tactile/pane/default_geocode-1x.png", "address":"9 Đ. Nguyễn Đáng, Phường 9, Trà Vinh, Việt Nam","state":"Trà Vinh","latitude":9.924450607037391, "longitude":106.33678188604136},
{"name":"Quán Ăn Hồng Phúc","type":"Nhà hàng","image":"https://maps.gstatic.com/tactile/pane/default_geocode-1x.png", "address":"122 Đ. Nguyễn Đáng, Phường 7, Tp. Trà Vinh, Trà Vinh, Việt Nam","state":"Trà Vinh","latitude":9.92660894387529, "longitude":106.33386888689049},
{"name":"Quán Châu Đồng","type":"Nhà hàng","image":"https://lh5.googleusercontent.com/p/AF1QipMAvIIFWtvNk6ul-hF5JeXZHLRa09xXgDSdDrMw=w408-h306-k-no", "address":"Phường 6, Trà Vinh, Việt Nam","state":"Trà Vinh","latitude":9.927932925335728, "longitude":106.34310659016404},
{"name":"Quán Hải Sản Hè Phố","type":"Nhà hàng","image":"https://maps.gstatic.com/tactile/pane/default_geocode-1x.png", "address":"30 Đ. Nguyễn Đáng, Phường 7, Tp. Trà Vinh, Trà Vinh, Việt Nam","state":"Trà Vinh","latitude":9.926306576705127, "longitude":106.33395714687238},
{"name":"Ẩm Thực Chay NGUYÊN KHÔNG","type":"Nhà hàng","image":"https://lh5.googleusercontent.com/p/AF1QipP40P8qxfoVt-xjvdVNJOhTcbfszsUbL989FI71=w408-h306-k-no", "address":"221 Đ. Nguyễn Đáng, Khóm 6, Trà Vinh, Việt Nam","state":"Trà Vinh","latitude":9.926676464483847, "longitude":106.3333670609374},
{"name":"KING Beer Garden Trà Vinh","type":"Nhà hàng","image":"https://lh5.googleusercontent.com/p/AF1QipPMTXoOrwzpi_rW0dRGYWKvdDksEbEhBR5-21NC=w408-h544-k-no", "address":"Trần Phú Nối Dài, Phường 7, Thành phố Trà Vinh, Trà Vinh 940000, Việt Nam","state":"Trà Vinh","latitude":9.93652812097356, "longitude":106.33271957846033},
{"name":"Quán ốc 81","type":"Nhà hàng","image":"https://lh5.googleusercontent.com/p/AF1QipN7A42iG84QAGHWOe2rha0VomgR7G5E1GIxhwHd=w408-h306-k-no", "address":"198 Đ. Nguyễn Đáng, Phường 6, Trà Vinh, Việt Nam","state":"Trà Vinh","latitude":9.92712673536427, "longitude":106.33223216314201},
{"name":"Nhà Hàng Hải Sản Gold","type":"Nhà hàng","image":"https://lh5.googleusercontent.com/p/AF1QipPmOk3L7evEaoLspAg6TO2-IeYiMsMsAD9RDIa_=w408-h306-k-no", "address":"86 Lê Lợi, P. 2, Trà Vinh, Việt Nam","state":"Trà Vinh","latitude":9.935259181685037, "longitude":106.34148783797696},
{"name":"Quán Ăn 379","type":"Nhà hàng","image":"https://maps.gstatic.com/tactile/pane/default_geocode-1x.png", "address":"379 Phan Đình Phùng, Phường 6, Tp. Trà Vinh, Trà Vinh, Việt Nam","state":"Trà Vinh","latitude":9.926260587906679, "longitude":106.3390367312297},
{"name":"Phước vinh","type":"Nhà hàng","image":"https://maps.gstatic.com/tactile/pane/default_geocode-1x.png", "address":"9 Đ. Nguyễn Đáng, Phường 9, Trà Vinh, Việt Nam","state":"Trà Vinh","latitude":9.924392540843685, "longitude":106.3370380140427},
{"name":"Quán Ăn Bình Dân Quán","type":"Nhà hàng","image":"https://maps.gstatic.com/tactile/pane/default_geocode-1x.png", "address":"Đường Đ. Nguyễn Đáng, Phường 7, Trà Vinh, Việt Nam","state":"Trà Vinh","latitude":9.927480051196298, "longitude":106.33222858520755},
{"name":"Lẩu Dê Việt Ấn","type":"Nhà hàng","image":"https://maps.gstatic.com/tactile/pane/default_geocode-1x.png", "address":"76 Điện Biên Phủ, Khóm 9, Trà Vinh, Việt Nam","state":"Trà Vinh","latitude":9.929774655089945, "longitude":106.34102309749358},
{"name":"Món Ngon","type":"Nhà hàng","image":"https://maps.gstatic.com/tactile/pane/default_geocode-1x.png", "address":"444 Nguyễn Thị Minh Khai, Phường 7, Trà Vinh, Việt Nam","state":"Trà Vinh","latitude":9.928222487384165, "longitude":106.33148691404274},
{"name":"Bún Măm 476","type":"Nhà hàng","image":"https://maps.gstatic.com/tactile/pane/default_geocode-1x.png", "address":"476A Đ. Nguyễn Đáng, khóm 3, Trà Vinh, Việt Nam","state":"Trà Vinh","latitude":9.923855636082205, "longitude":106.33939751219644},
{"name":"Nhà Hàng Tài Ký","type":"Nhà hàng","image":"https://maps.gstatic.com/tactile/pane/default_geocode-1x.png", "address":"9 Đ. Nguyễn Đáng, Phường 7, Trà Vinh, Việt Nam","state":"Trà Vinh","latitude":9.927576560319084, "longitude":106.33115531951424},
{"name":"Quán Cơm 9A","type":"Nhà hàng","image":"https://maps.gstatic.com/tactile/pane/default_geocode-1x.png", "address":"9 Phan Đình Phùng, Phường 6, Tp. Trà Vinh, Trà Vinh, Việt Nam","state":"Trà Vinh","latitude":9.926033351488167, "longitude":106.33885468520754},
{"name":"Nhà hàng La VANG - Trà Vinh (cơm trưa, cơm tour)","type":"Nhà hàng","image":"https://maps.gstatic.com/tactile/pane/default_geocode-1x.png", "address":"45B Phạm Ngũ Lão, Phường 1, Trà Vinh, Việt Nam","state":"Trà Vinh","latitude":9.94594123126603, "longitude":106.34040887725189},
{"name":"Trieu Nguyen Restaurant","type":"Nhà hàng","image":"https://maps.gstatic.com/tactile/pane/default_geocode-1x.png", "address":"113 Trần Quốc Tuấn, Phường 3, Trà Vinh, Việt Nam","state":"Trà Vinh","latitude":9.934161653779345, "longitude":106.34095744657043},
{"name":"Nhà Hàng Tiệc Cưới Uyên Ương","type":"Nhà hàng","image":"https://maps.gstatic.com/tactile/pane/default_geocode-1x.png", "address":"Lý Thường Kiệt, Phường 4, Trà Vinh, Việt Nam","state":"Trà Vinh","latitude":9.937734365195654, "longitude":106.34395584103162},
{"name":"Buffet Anh Bốn","type":"Nhà hàng","image":"https://maps.gstatic.com/tactile/pane/default_geocode-1x.png", "address":"Khu Ẩm Thực, Đường Trần Phú, khóm 8, Trà Vinh, Việt Nam","state":"Trà Vinh","latitude":9.935754833488689, "longitude":106.33352909195477},

{"name":"Nhà hàng sân vườn Hoàng Thành","type":"Nhà hàng","image":"https://maps.gstatic.com/tactile/pane/default_geocode-1x.png", "address":"ĐC:, 630 đường Ấp Bắc, KP .7, Thành phố Mỹ Tho, Tiền Giang, Việt Nam","state":"Tiền Giang","latitude":10.375732047391331, "longitude":106.37743840983885},
{"name":"Nhà hàng Làng Việt","type":"Nhà hàng","image":"https://maps.gstatic.com/tactile/pane/default_geocode-1x.png", "address":"194 Ấp Bắc, Phường 5, tp, Tiền Giang, Việt Nam","state":"Tiền Giang","latitude":10.368977800490658, "longitude":106.36078726188119},
{"name":"Quán ăn sân vườn Đồng Nam","type":"Nhà hàng","image":"https://maps.gstatic.com/tactile/pane/default_geocode-1x.png", "address":"281 B Lý Thường Kiệt, Phường 5, Thành phố Mỹ Tho, Tiền Giang, Việt Nam","state":"Tiền Giang","latitude":10.364807236388241, "longitude":106.35346682126362},
{"name":"Nhà hàng Lộc Phố 2","type":"Nhà hàng","image":"https://maps.gstatic.com/tactile/pane/default_geocode-1x.png", "address":"151 Lý Thường Kiệt, Phường 5, Thành phố Mỹ Tho, Tiền Giang, Việt Nam","state":"Tiền Giang","latitude":10.361702763292481, "longitude":106.35644070309324},
{"name":"Nhà hàng sân vườn Lộc Mai","type":"Nhà hàng","image":"https://maps.gstatic.com/tactile/pane/default_geocode-1x.png", "address":"297E Đường Phạm Thanh, Phường 5, Thành phố Mỹ Tho, Tiền Giang, Việt Nam","state":"Tiền Giang","latitude":10.362770148961587, "longitude":106.3444473634256},
{"name":"Quán ăn sân vườn Đồng Quê","type":"Nhà hàng","image":"https://maps.gstatic.com/tactile/pane/default_geocode-1x.png", "address":"QL50, Đạo Thành, Thành phố Mỹ Tho, Tiền Giang, Việt Nam","state":"Tiền Giang","latitude":10.384827751297566, "longitude":106.36332766970806},
{"name":"Vườn Ẩm Thực Phương Nam Mỹ Tho","type":"Nhà hàng","image":"https://maps.gstatic.com/tactile/pane/default_geocode-1x.png", "address":"101 Lý Thường Kiệt, Phường 5, Thành phố Mỹ Tho, Tiền Giang, Việt Nam","state":"Tiền Giang","latitude":10.368952994364653, "longitude":106.35354069884605},
{"name":"Ngoai O Restaurant","type":"Nhà hàng","image":"https://maps.gstatic.com/tactile/pane/default_geocode-1x.png", "address":"Dao Thanh Commune, Go Cong Tay District, Đạo Thành, Thành phố Mỹ Tho, Tiền Giang, Việt Nam","state":"Tiền Giang","latitude":10.38494926664888, "longitude":106.36527721915627},
{"name":"Mekong Rest Stop","type":"Nhà hàng","image":"https://maps.gstatic.com/tactile/pane/default_geocode-1x.png", "address":"KM 1964+ 300, QL1A, Long An, Châu Thành, Tiền Giang 84000, Việt Nam","state":"Tiền Giang","latitude":10.415919984894643, "longitude":106.34264911972684},
{"name":"Nhà hàng Hoàng Sa","type":"Nhà hàng","image":"https://maps.gstatic.com/tactile/pane/default_geocode-1x.png", "address":"9923+CF2, Phường 6, Thành phố Mỹ Tho, Tiền Giang, Việt Nam","state":"Tiền Giang","latitude":10.351230329724867, "longitude":106.35398375982824},
{"name":"Nhà Hàng Bách Tùng Viên - Halal Food. 64 Nguyễn Trung Trực - Mỹ Tho - Tiền Giang","type":"Nhà hàng","image":"https://maps.gstatic.com/tactile/pane/default_geocode-1x.png", "address":"Bách Tùng Viên, 171B Xóm Dầu, Phường 3, Thành phố Mỹ Tho, Tiền Giang, Việt Nam","state":"Tiền Giang","latitude":10.363566298715579, "longitude":106.37173148010447},
{"name":"Nhà hàng Trung Lương","type":"Nhà hàng","image":"https://maps.gstatic.com/tactile/pane/default_geocode-1x.png", "address":"207 Ấp Bắc, Phường 10, Thành phố Mỹ Tho, Tiền Giang, Việt Nam","state":"Tiền Giang","latitude":10.383644834620357, "longitude":106.34276085190778},
{"name":"Nhà hàng ẩm thực 284","type":"Nhà hàng","image":"https://maps.gstatic.com/tactile/pane/default_geocode-1x.png", "address":"284 Lý Thường Kiệt, Phường 5, Thành phố Mỹ Tho, Tiền Giang, Việt Nam","state":"Tiền Giang","latitude":10.359899303532126, "longitude":106.35665771270014},
{"name":"Nhà hàng Phố Biển","type":"Nhà hàng","image":"https://maps.gstatic.com/tactile/pane/default_geocode-1x.png", "address":"34 Lê Văn Phẩm, Phường 5, Thành phố Mỹ Tho, Tiền Giang, Việt Nam","state":"Tiền Giang","latitude":10.360859709662755, "longitude":106.3517546350653},
{"name":"Nhà hàng Sông Tiền","type":"Nhà hàng","image":"https://maps.gstatic.com/tactile/pane/default_geocode-1x.png", "address":"1 Lãnh Binh Cẩn, Phường 1, Thành phố Mỹ Tho, Tiền Giang, Việt Nam","state":"Tiền Giang","latitude":10.35538310795761, "longitude":106.3677250999397},
{"name":"Làng ẩm thực Song Thuận","type":"Nhà hàng","image":"https://maps.gstatic.com/tactile/pane/default_geocode-1x.png", "address":"204 Ấp Tân Thuận, Bình Đức, Châu Thành, Tiền Giang, Việt Nam","state":"Tiền Giang","latitude":10.337326043029284, "longitude":106.2945922464469},
{"name":"Nhà hàng ẩm thực 284","type":"Nhà hàng","image":"https://maps.gstatic.com/tactile/pane/default_geocode-1x.png", "address":"Số 171A Lý Thường Kiệt, Phường 5, Thành phố Mỹ Tho, Tiền Giang, Việt Nam","state":"Tiền Giang","latitude":10.364163852690938, "longitude":106.35276114896497},
{"name":"Nhà hàng Hương Việt","type":"Nhà hàng","image":"https://maps.gstatic.com/tactile/pane/default_geocode-1x.png", "address":"98R3+XR6, Tam Hiệp, Châu Thành, Tiền Giang, Việt Nam","state":"Tiền Giang","latitude":10.392636633001226, "longitude":106.30477009186518},
{"name":"Nhà hàng Chí Thành","type":"Nhà hàng","image":"https://maps.gstatic.com/tactile/pane/default_geocode-1x.png", "address":"234 Ấp Bắc, Phường 5, Thành phố Mỹ Tho, Tiền Giang, Việt Nam","state":"Tiền Giang","latitude":10.368182203573607, "longitude":106.35415407098564},
{"name":"Nhà Hàng Rắn Mỹ Tho 180","type":"Nhà hàng","image":"https://maps.gstatic.com/tactile/pane/default_geocode-1x.png", "address":"180 Lý Thường Kiệt, Phường 5, Thành phố Mỹ Tho, Tiền Giang, Việt Nam","state":"Tiền Giang","latitude":10.370145176462865, "longitude":106.35104270878308}

]


















